{"protocolSection":{"identificationModule":{"nctId":"NCT02972658","orgStudyIdInfo":{"id":"16557"},"secondaryIdInfos":[{"id":"I8D-MC-AZFD","type":"OTHER","domain":"Eli Lilly and Company"},{"id":"2016-003440-36","type":"EUDRACT_NUMBER"}],"organization":{"fullName":"AstraZeneca","class":"INDUSTRY"},"briefTitle":"A Study of Lanabecestat (LY3314814) in Early Alzheimer's Disease Dementia","officialTitle":"A Randomized, Double-Blind, Delayed-Start Study of LY3314814 (AZD3293) in Early Alzheimer's Disease Dementia (Extension of Study AZES, The AMARANTH Study)"},"statusModule":{"statusVerifiedDate":"2019-11","overallStatus":"TERMINATED","whyStopped":"As the feeder study (AZES) was stopped for futility after an independent assessment, this trial was also stopped.","expandedAccessInfo":{"hasExpandedAccess":false},"startDateStruct":{"date":"2017-03-15","type":"ACTUAL"},"primaryCompletionDateStruct":{"date":"2018-10-02","type":"ACTUAL"},"completionDateStruct":{"date":"2018-10-02","type":"ACTUAL"},"studyFirstSubmitDate":"2016-11-21","studyFirstSubmitQcDate":"2016-11-21","studyFirstPostDateStruct":{"date":"2016-11-23","type":"ESTIMATED"},"resultsFirstSubmitDate":"2019-06-11","resultsFirstSubmitQcDate":"2019-06-11","resultsFirstPostDateStruct":{"date":"2019-07-05","type":"ACTUAL"},"lastUpdateSubmitDate":"2019-11-19","lastUpdatePostDateStruct":{"date":"2019-12-03","type":"ACTUAL"}},"sponsorCollaboratorsModule":{"responsibleParty":{"type":"SPONSOR"},"leadSponsor":{"name":"AstraZeneca","class":"INDUSTRY"},"collaborators":[{"name":"Eli Lilly and Company","class":"INDUSTRY"}]},"oversightModule":{"oversightHasDmc":true,"isFdaRegulatedDrug":true,"isFdaRegulatedDevice":false},"descriptionModule":{"briefSummary":"This study is an extension of study I8D-MC-AZES (NCT02245737), the AMARANTH study. The purpose of this study is to evaluate the effectiveness of the study drug lanabecestat in participants with early Alzheimer's disease dementia at the time of entry into study I8D-MC-AZES.","detailedDescription":"Study AZFD was designed to be integrated with 104-week study AZES to form a Delayed-Start study (Study AZES-FD). Study AZES-FD was to be used to test the hypothesis that participants originally randomized to receive placebo in the double-blind feeder study AZES and switched to LY3314814 at the start of study AZFD did not \"catch up\" on the Alzheimer's Disease Assessment Scale-Cognitive Subscale (ADAS-Cog13) at Week 26 of study AZFD to participants originally randomized to receive LY3314814 in the double-blind feeder study."},"conditionsModule":{"conditions":["Alzheimer's Disease"],"keywords":["Alzheimer's Disease","Dementia","Brain Diseases","Neurodegenerative Diseases","Central Nervous System Diseases","Nervous System Diseases","Mental Disorders","Delirium, Dementia, Amnestic, Cognitive Disorders","Tauopathies","Memory","Amyloid"]},"designModule":{"studyType":"INTERVENTIONAL","phases":["PHASE3"],"designInfo":{"allocation":"RANDOMIZED","interventionModel":"PARALLEL","primaryPurpose":"TREATMENT","maskingInfo":{"masking":"TRIPLE","whoMasked":["PARTICIPANT","CARE_PROVIDER","INVESTIGATOR"]}},"enrollmentInfo":{"count":421,"type":"ACTUAL"}},"armsInterventionsModule":{"armGroups":[{"label":"AZES Lanabecestat 20 milligrams (mg)/AZFD Lanabecestat 20 mg","type":"EXPERIMENTAL","description":"Participants who received Lanabecestat 20 mg in the feeder study (AZES) were randomized to receive Lanabecestat 20 mg.","interventionNames":["Drug: Lanabecestat"]},{"label":"AZES Lanabecestat 50 mg/AZFD Lanabecestat 50 mg","type":"EXPERIMENTAL","description":"Participants who received Lanabecestat 50 mg in the feeder study (AZES) were randomized to receive Lanabecestat 50 mg.","interventionNames":["Drug: Lanabecestat"]},{"label":"AZES Placebo/AZFD Lanabecestat 20 mg","type":"EXPERIMENTAL","description":"Participants who received placebo in the feeder study (AZES) were randomized to receive Lanabecestat 20 mg.","interventionNames":["Drug: Lanabecestat"]},{"label":"AZES Placebo/AZFD Lanabecestat 50 mg","type":"EXPERIMENTAL","description":"Participants who received placebo in the feeder study (AZES) were randomized to receive Lanabecestat 50 mg.","interventionNames":["Drug: Lanabecestat"]}],"interventions":[{"type":"DRUG","name":"Lanabecestat","description":"Administered orally","armGroupLabels":["AZES Lanabecestat 20 milligrams (mg)/AZFD Lanabecestat 20 mg","AZES Lanabecestat 50 mg/AZFD Lanabecestat 50 mg","AZES Placebo/AZFD Lanabecestat 20 mg","AZES Placebo/AZFD Lanabecestat 50 mg"],"otherNames":["LY3314814","AZD3293"]}]},"outcomesModule":{"primaryOutcomes":[{"measure":"Change From Baseline Analysis on the 13-item Alzheimer's Disease Assessment Scale - Cognitive Subscale (ADAS-Cog13)","description":"ADAS-Cog13 (13-item version of ADAS-Cog) is a psychometric instrument that evaluates word recall, ability to follow commands, constructional praxis, naming, ideational praxis, orientation, word recognition, memory, comprehension of spoken language, word-finding, and language ability, with a measure of delayed word recall and concentration/ distractibility. The total score of the 13-item scale ranges from 0 to 85, with an increase in score indicating cognitive worsening. Least Squares (LS) mean was determined by mixed-model repeated measures (MMRM) model with factors for treatment, visit, treatment\\*visit, baseline efficacy score, baseline efficacy score-by-visit interaction, disease status at baseline, apolipoprotein E4 (APOE4) status, acetylcholinesterase inhibitor (AChEI) use at baseline, age at baseline, and pooled country.","timeFrame":"AZES Baseline through AZFD Week 26"}],"secondaryOutcomes":[{"measure":"Change From Baseline Analysis on the Alzheimer´s Disease Cooperative Study Activities of Daily Living Inventory Instrumental Items (ADCS-iADL)","description":"The ADCS-ADL is a 23-item inventory developed as a rater-administered questionnaire answered by the participant's caregiver. The ADCS-ADL measures both basic and instrumental activities of daily living by participants. The range for the ADCS-iADL is 0-59 with higher scores reflecting better performance. LS Mean was determined by MMRM with factors for treatment, visit, treatment\\*visit, baseline efficacy score, baseline efficacy score-by-visit interaction, disease status at baseline, APOE4 status, AChEI use at baseline, age at baseline, and pooled country.","timeFrame":"AZES Baseline through AZFD Week 26"},{"measure":"Change From Baseline on the Functional Activities Questionnaire (FAQ) Score","description":"FAQ is a 10-item, caregiver-questionnaire and was administered to the study partner and asked to rate the participant's ability to perform a variety of activities ranging from writing checks, assembling tax records, shopping, playing games, food preparation, traveling, keeping appointments, traveling out of neighborhood, keeping track of current events and understanding media. FAQ total score was calculated by adding the scores from each of the 10 items. Each activity is rated on a scale from 0 to 3 (Never did and would have difficulty now =1; Never did but could do now =0; Normal =0; Has difficulty but does by self =1; Requires assistance =2; Dependent =3). FAQ scale is 0 to 30, with higher scores indicating greater impairment. LS Mean was determined by MMRM with factors for treatment, visit, treatment\\*visit, baseline efficacy score, baseline efficacy score-by-visit interaction, disease status at baseline, APOE4 status, AChEI use at baseline, age at baseline, and pooled country.","timeFrame":"AZES Baseline through AZFD Week 26"},{"measure":"Change From Baseline on the Integrated Alzheimer's Disease Rating Scale (iADRS) Score","description":"The iADRS is a composite that measures both cognition and function. The iADRS comprises scores form the ADAS- Cog and the ADCS-iADL. The iADRS is calculated as a linear combination of the total scores of the ADAS-Cog13 (score range 0 to 85 with higher scores reflecting worse performance) and the ADCS-iADL (score range from 0-59 with higher scores reflecting better performance). The iADRS score ranges from 0 to 144 with higher scores indicating greater impairment. LS Mean was determined by MMRM with factors for treatment, visit, treatment\\*visit, baseline efficacy score, baseline efficacy score-by-visit interaction, disease status at baseline, APOE4 status, AChEI use at baseline, age at baseline, and pooled country.","timeFrame":"AZES Baseline through AZFD Week 26"},{"measure":"Change From Baseline on the Mini-Mental Status Examination (MMSE)","description":"The MMSE is an instrument used to assess a participant's cognitive function. The MMSE assesses orientation to time and place, immediate and delayed recall of words, attention and calculation, language (naming, comprehension and repetition), and spatial ability (copying a figure). The range for MMSE total Score is 0 to 30, with a higher score indicating better cognitive performance. LS Mean was determined by MMRM methodology with factors for treatment, visit, treatment\\*visit, baseline efficacy score, baseline efficacy score-by-visit interaction, disease status at baseline, APOE4 status, AChEI use at baseline, age at baseline, and pooled country.","timeFrame":"AZES Baseline through AZFD Week 26"},{"measure":"Change From Baseline Analysis on the ADAS-Cog13","description":"ADAS-cog13 (13-item ADAS cog) is a psychometric instrument that evaluates word recall, ability to follow commands, constructional praxis, naming, ideational praxis, orientation, word recognition, memory, comprehension of spoken language, word-finding, and language ability, with a measure of delayed word recall and concentration/ distractibility. The total score of the 13-item scale ranges from 0 to 85, with an increase in score indicating cognitive worsening. Least Squares (LS) mean was determined by mixed-model repeated measures (MMRM) model with factors for treatment, visit, treatment\\*visit, baseline efficacy score, baseline efficacy score-by-visit interaction, disease status at baseline, APOE4 status, AChEI use at baseline, age at baseline, and pooled country.","timeFrame":"AZES Baseline through AZFD Week 52"}]},"eligibilityModule":{"eligibilityCriteria":"Inclusion Criteria:\n\n* Participants previously enrolled in AMARANTH (NCT02245737) who meet eligibility criteria for delayed-start I8D-MC-AZFD.\n\nExclusion Criteria:\n\n* Participants who participate in AMARANTH (NCT02245737) who develop new conditions precluding them from enrolling into I8D-MC-AZFD.","healthyVolunteers":false,"sex":"ALL","minimumAge":"55 Years","stdAges":["ADULT","OLDER_ADULT"]},"contactsLocationsModule":{"overallOfficials":[{"name":"Call 1-877-CTLILLY (1-877-285-4559) or 1-317-615-4559 Mon - Fri 9 AM - 5 PM Eastern time (UTC/GMT - 5 hours, EST)","affiliation":"Eli Lilly and Company","role":"STUDY_DIRECTOR"}],"locations":[{"facility":"Banner Alzheimer's Institute","city":"Phoenix","state":"Arizona","zip":"85006","country":"United States","geoPoint":{"lat":33.44838,"lon":-112.07404}},{"facility":"Territory Neurology & Research Institute","city":"Tucson","state":"Arizona","zip":"85704","country":"United States","geoPoint":{"lat":32.22174,"lon":-110.92648}},{"facility":"Pacific Research Network Inc","city":"San Diego","state":"California","zip":"92103","country":"United States","geoPoint":{"lat":32.71533,"lon":-117.15726}},{"facility":"Mile High Research Center","city":"Denver","state":"Colorado","zip":"80218","country":"United States","geoPoint":{"lat":39.73915,"lon":-104.9847}},{"facility":"Institute for Neurodegenerative Disorders","city":"New Haven","state":"Connecticut","zip":"06510","country":"United States","geoPoint":{"lat":41.30815,"lon":-72.92816}},{"facility":"Georgetown University Medical Center","city":"Washington","state":"District of Columbia","zip":"20057","country":"United States","geoPoint":{"lat":38.89511,"lon":-77.03637}},{"facility":"Brain Matters Research","city":"Delray Beach","state":"Florida","zip":"33445","country":"United States","geoPoint":{"lat":26.46146,"lon":-80.07282}},{"facility":"Compass Research","city":"Orlando","state":"Florida","zip":"32806","country":"United States","geoPoint":{"lat":28.53834,"lon":-81.37924}},{"facility":"IMIC, Inc.","city":"Palmetto Bay","state":"Florida","zip":"33157","country":"United States","geoPoint":{"lat":25.62177,"lon":-80.32477}},{"facility":"Suncoast Neuroscience Associates","city":"Saint Petersburg","state":"Florida","zip":"33713","country":"United States","geoPoint":{"lat":27.77086,"lon":-82.67927}},{"facility":"Roskamp Institute","city":"Sarasota","state":"Florida","zip":"34243","country":"United States","geoPoint":{"lat":27.33643,"lon":-82.53065}},{"facility":"Premiere Research Institute at Palm Beach Neurology","city":"West Palm Beach","state":"Florida","zip":"33407","country":"United States","geoPoint":{"lat":26.71534,"lon":-80.05337}},{"facility":"The Multiple Sclerosis Center of Atlanta","city":"Atlanta","state":"Georgia","zip":"30327","country":"United States","geoPoint":{"lat":33.749,"lon":-84.38798}},{"facility":"University of Chicago Medical Center","city":"Chicago","state":"Illinois","zip":"60637","country":"United States","geoPoint":{"lat":41.85003,"lon":-87.65005}},{"facility":"Community Clinical Research Center","city":"Anderson","state":"Indiana","zip":"46011","country":"United States","geoPoint":{"lat":40.10532,"lon":-85.68025}},{"facility":"Boston Center for Memory","city":"Newton","state":"Massachusetts","zip":"02459","country":"United States","geoPoint":{"lat":42.33704,"lon":-71.20922}},{"facility":"Hattiesburg Clinic","city":"Hattiesburg","state":"Mississippi","zip":"39401","country":"United States","geoPoint":{"lat":31.32712,"lon":-89.29034}},{"facility":"Memory Enhancement Center of America, Inc.","city":"Eatontown","state":"New Jersey","zip":"07724","country":"United States","geoPoint":{"lat":40.29622,"lon":-74.05097}},{"facility":"The Cognitive and Research Center of NJ","city":"Springfield","state":"New Jersey","zip":"07081","country":"United States","geoPoint":{"lat":40.70491,"lon":-74.31723}},{"facility":"Advanced Memory Research Institute of New Jersey","city":"Toms River","state":"New Jersey","zip":"08755","country":"United States","geoPoint":{"lat":39.95373,"lon":-74.19792}},{"facility":"Integrative Clinical Trials, LLC","city":"Brooklyn","state":"New York","zip":"11229","country":"United States","geoPoint":{"lat":40.6501,"lon":-73.94958}},{"facility":"Columbia University Medical Center","city":"New York","state":"New York","zip":"10032","country":"United States","geoPoint":{"lat":40.71427,"lon":-74.00597}},{"facility":"University of Rochester School of Medicine","city":"Rochester","state":"New York","zip":"14620","country":"United States","geoPoint":{"lat":43.15478,"lon":-77.61556}},{"facility":"Valley Medical Primary Care","city":"Centerville","state":"Ohio","zip":"45459","country":"United States","geoPoint":{"lat":39.62839,"lon":-84.15938}},{"facility":"Lindner Research Center","city":"Cincinnati","state":"Ohio","zip":"45219","country":"United States","geoPoint":{"lat":39.12713,"lon":-84.51435}},{"facility":"Ohio State University Medical Center","city":"Columbus","state":"Ohio","zip":"43210","country":"United States","geoPoint":{"lat":39.96118,"lon":-82.99879}},{"facility":"Lehigh Valley Hospital","city":"Allentown","state":"Pennsylvania","zip":"18103","country":"United States","geoPoint":{"lat":40.60843,"lon":-75.49018}},{"facility":"Rhode Island Mood & Memory Research Institute","city":"East Providence","state":"Rhode Island","zip":"02914","country":"United States","geoPoint":{"lat":41.81371,"lon":-71.37005}},{"facility":"Radiant Research","city":"Greer","state":"South Carolina","zip":"29651","country":"United States","geoPoint":{"lat":34.93873,"lon":-82.22706}},{"facility":"Quillen College of Medicine, East TN State University","city":"Johnson City","state":"Tennessee","zip":"37604","country":"United States","geoPoint":{"lat":36.31344,"lon":-82.35347}},{"facility":"The Memory Clinic","city":"Bennington","state":"Vermont","zip":"05201","country":"United States","geoPoint":{"lat":42.87813,"lon":-73.19677}},{"facility":"Southern Neurology","city":"Kogarah","state":"New South Wales","zip":"2217","country":"Australia","geoPoint":{"lat":-33.98333,"lon":151.11667}},{"facility":"Royal Adelaide Hospital","city":"Adelaide","state":"South Australia","zip":"5000","country":"Australia","geoPoint":{"lat":-34.92866,"lon":138.59863}},{"facility":"Eastern Clinical Research Unit","city":"Box Hill","state":"Victoria","zip":"3128","country":"Australia","geoPoint":{"lat":-37.81887,"lon":145.12545}},{"facility":"Delmont Private Hospital","city":"Glen Iris","state":"Victoria","zip":"3146","country":"Australia","geoPoint":{"lat":-37.85998,"lon":145.05494}},{"facility":"The Florey Institute of Neuroscience and Mental Health","city":"Parkville","state":"Victoria","zip":"3052","country":"Australia","geoPoint":{"lat":-37.78333,"lon":144.95}},{"facility":"Australian Alzheimer's Research Foundation","city":"Nedlands","state":"Western Australia","zip":"6009","country":"Australia","geoPoint":{"lat":-31.98184,"lon":115.8073}},{"facility":"Neuro Trials Victoria Pty Ltd","city":"Noble Park","zip":"3174","country":"Australia","geoPoint":{"lat":-37.96667,"lon":145.16667}},{"facility":"Jessa Ziekenhuis","city":"Hasselt","state":"Limburg","zip":"3500","country":"Belgium","geoPoint":{"lat":50.93106,"lon":5.33781}},{"facility":"Hopital Universitaire Brugmann Brussel","city":"Brussels","zip":"1020","country":"Belgium","geoPoint":{"lat":50.85045,"lon":4.34878}},{"facility":"Cliniques Universitaires Saint-Luc","city":"Brussels","zip":"1200","country":"Belgium","geoPoint":{"lat":50.85045,"lon":4.34878}},{"facility":"Hospital Universitaire Erasme Brussel","city":"Brussel","zip":"1070","country":"Belgium","geoPoint":{"lat":50.85045,"lon":4.34878}},{"facility":"Universitaire Ziekenhuizen Leuven - Campus Gasthuisberg","city":"Leuven","zip":"3000","country":"Belgium","geoPoint":{"lat":50.87959,"lon":4.70093}},{"facility":"AZ Delta","city":"Roeselare","zip":"8800","country":"Belgium","geoPoint":{"lat":50.94653,"lon":3.12269}},{"facility":"Okanagan Clinical Trials","city":"Kelowna","state":"British Columbia","zip":"V1Y 1Z9","country":"Canada","geoPoint":{"lat":49.88307,"lon":-119.48568}},{"facility":"True North Clinical Research Halifax, LLC","city":"Halifax","state":"Nova Scotia","zip":"B3S1M7","country":"Canada","geoPoint":{"lat":44.64533,"lon":-63.57239}},{"facility":"Elizabeth Bruyere Health Centre","city":"Ottawa","state":"Ontario","zip":"KIN 5C8","country":"Canada","geoPoint":{"lat":45.41117,"lon":-75.69812}},{"facility":"Kawartha Regional Memory Clinic","city":"Peterborough","state":"Ontario","zip":"K9H2P4","country":"Canada","geoPoint":{"lat":44.30012,"lon":-78.31623}},{"facility":"Toronto Memory Program","city":"Toronto","state":"Ontario","zip":"M3B 2S7","country":"Canada","geoPoint":{"lat":43.70011,"lon":-79.4163}},{"facility":"Clinique de la Memoire de l'Outaouais","city":"Gatineau","state":"Quebec","zip":"J8T 8J1","country":"Canada","geoPoint":{"lat":45.47723,"lon":-75.70164}},{"facility":"NeuroSearch Developements","city":"Greenfield Park","state":"Quebec","zip":"J4V 2J2","country":"Canada","geoPoint":{"lat":45.48649,"lon":-73.46223}},{"facility":"Hopital de L'Enfant Jesus","city":"Quebec City","state":"Quebec","zip":"G1J 1Z4","country":"Canada","geoPoint":{"lat":46.81228,"lon":-71.21454}},{"facility":"Q&T Research Sherbrooke Inc","city":"Sherbrooke","state":"Quebec","zip":"J1J 2G2","country":"Canada","geoPoint":{"lat":45.40008,"lon":-71.89908}},{"facility":"Centre Hospitalier Universitaire La Timone","city":"Marseille","state":"Cedex 05","zip":"13385","country":"France","geoPoint":{"lat":43.29551,"lon":5.38958}},{"facility":"CHRU de Lille- Hôpital Roger Salengro","city":"Lille","state":"Cedex","zip":"59037","country":"France","geoPoint":{"lat":50.63297,"lon":3.05858}},{"facility":"CHU de Toulouse Hopital Purpan","city":"Toulouse","state":"Cedex","zip":"31059","country":"France","geoPoint":{"lat":43.60426,"lon":1.44367}},{"facility":"Hopital Neuro Pierre Wertheimer","city":"Bron Cedex","zip":"69677","country":"France","geoPoint":{"lat":45.73333,"lon":4.91667}},{"facility":"CHU Bocage CMRR","city":"Dijon","zip":"21079","country":"France","geoPoint":{"lat":47.31667,"lon":5.01667}},{"facility":"Hopital Broca","city":"Paris","zip":"75013","country":"France","geoPoint":{"lat":48.85341,"lon":2.3488}},{"facility":"Hôpital de la Pitié-Salpêtrière","city":"Paris","zip":"75013","country":"France","geoPoint":{"lat":48.85341,"lon":2.3488}},{"facility":"Hôpital Fernand Widal","city":"Paris","zip":"75475","country":"France","geoPoint":{"lat":48.85341,"lon":2.3488}},{"facility":"Chu de Nantes Hopital Laennec","city":"Saint-Herblain","zip":"44093","country":"France","geoPoint":{"lat":47.21765,"lon":-1.64841}},{"facility":"Centre de Recherche Clinique du Gérontopôle Cité de la Santé","city":"Toulouse","zip":"31052","country":"France","geoPoint":{"lat":43.60426,"lon":1.44367}},{"facility":"Hopital des Charpennes","city":"Villeurbanne","zip":"69100","country":"France","geoPoint":{"lat":45.76667,"lon":4.88333}},{"facility":"Universitätsklinikum Ulm","city":"Ulm","state":"Baden-Württemberg","zip":"89081","country":"Germany","geoPoint":{"lat":48.39841,"lon":9.99155}},{"facility":"Studien und Gedächtniszentrum München","city":"München","state":"Bayern","zip":"80331","country":"Germany","geoPoint":{"lat":48.13743,"lon":11.57549}},{"facility":"Klinikum Rechts der Isar der TU München","city":"München","state":"Bayern","zip":"81675","country":"Germany","geoPoint":{"lat":48.13743,"lon":11.57549}},{"facility":"Gemeinschaftspraxis für Neurologie und Psychiatrie","city":"Westerstede","state":"Niedersachsen","zip":"26655","country":"Germany","geoPoint":{"lat":53.25682,"lon":7.92737}},{"facility":"DataMed Klinische Studien GmbH","city":"Köln","state":"Nordrhein-Westfalen","zip":"50935","country":"Germany","geoPoint":{"lat":50.93333,"lon":6.95}},{"facility":"Universitätsklinikum Köln","city":"Köln","state":"Nordrhein-Westfalen","zip":"50937","country":"Germany","geoPoint":{"lat":50.93333,"lon":6.95}},{"facility":"Neurologische Praxis Siegen","city":"Siegen","state":"Nordrhein-Westfalen","zip":"57076","country":"Germany","geoPoint":{"lat":50.87481,"lon":8.02431}},{"facility":"Pharm Studienzentrum Chemnitz","city":"Mittweida","state":"Sachsen","zip":"09648","country":"Germany","geoPoint":{"lat":50.98622,"lon":12.97537}},{"facility":"Charité Universitätsmedizin Berlin","city":"Berlin","zip":"10117","country":"Germany","geoPoint":{"lat":52.52437,"lon":13.41053}},{"facility":"Charité Universitätsmedizin Berlin","city":"Berlin","zip":"12203","country":"Germany","geoPoint":{"lat":52.52437,"lon":13.41053}},{"facility":"SE Neurologiai Klinika","city":"Budapest","zip":"1083","country":"Hungary","geoPoint":{"lat":47.49801,"lon":19.03991}},{"facility":"National Institute for Longevity Sciences NCGG","city":"Obu","state":"Aichi","zip":"474-0038","country":"Japan","geoPoint":{"lat":35.0,"lon":136.96667}},{"facility":"National Chiba-East-Hospital","city":"Chuo-ku","state":"Chiba","zip":"260-8712","country":"Japan","geoPoint":{"lat":35.57779,"lon":139.71685}},{"facility":"Tsukuba University Hospital","city":"Tsukuba","state":"Ibaraki","zip":"305-8576","country":"Japan","geoPoint":{"lat":36.2,"lon":140.1}},{"facility":"Iwate Medical University Hospital","city":"Morioka","state":"Iwate","zip":"020-8505","country":"Japan","geoPoint":{"lat":39.7,"lon":141.15}},{"facility":"Nihon Kokan Hospital","city":"Kawasaki","state":"Kanagawa","zip":"210-0852","country":"Japan","geoPoint":{"lat":35.52056,"lon":139.71722}},{"facility":"Katayama Medical Clinic","city":"Kurashiki","state":"Okayama","zip":"701-0192","country":"Japan","geoPoint":{"lat":34.58333,"lon":133.76667}},{"facility":"Shiroma Clinic","city":"Urasoe","state":"Okinawa","zip":"901-2102","country":"Japan","geoPoint":{"lat":26.25902,"lon":127.73012}},{"facility":"Sakaguchi Clinic","city":"Sakai","state":"Osaka","zip":"593-8301","country":"Japan","geoPoint":{"lat":34.58333,"lon":135.46667}},{"facility":"National Sanatorium Toneyama Hospital","city":"Toyonaka","state":"Osaka","zip":"560-8552","country":"Japan","geoPoint":{"lat":34.78244,"lon":135.46932}},{"facility":"Memory Clinic Ochanomizu","city":"Bunkyo-ku","state":"Tokyo","zip":"113-0034","country":"Japan","geoPoint":{"lat":35.37517,"lon":139.92991}},{"facility":"Nippon Medical School Hospital","city":"Bunkyo-Ku","state":"Tokyo","zip":"113-8603","country":"Japan","geoPoint":{"lat":35.37517,"lon":139.92991}},{"facility":"The University of Tokyo Hospital","city":"Bunkyo-ku","state":"Tokyo","zip":"113-8655","country":"Japan","geoPoint":{"lat":35.37517,"lon":139.92991}},{"facility":"Tokyo Women's Medical University Hospital","city":"Shinjuku-ku","state":"Tokyo","zip":"162-8666","country":"Japan","geoPoint":{"lat":35.2946,"lon":139.57059}},{"facility":"National Sanatorium Hokuriku Hospital","city":"Nanto","state":"Toyama","zip":"939-1893","country":"Japan","geoPoint":{"lat":36.56922,"lon":136.91162}},{"facility":"Fukuoka University Hospital","city":"Fukuoka","zip":"814-0180","country":"Japan","geoPoint":{"lat":33.6,"lon":130.41667}},{"facility":"Kyoto University Hospital","city":"Kyoto","zip":"606-8507","country":"Japan","geoPoint":{"lat":35.02107,"lon":135.75385}},{"facility":"Utano Hospital","city":"Kyoto","zip":"616-8255","country":"Japan","geoPoint":{"lat":35.02107,"lon":135.75385}},{"facility":"Osaka City University Hospital","city":"Osaka","zip":"637086","country":"Japan","geoPoint":{"lat":34.69374,"lon":135.50218}},{"facility":"Dong-A University Medical Center","city":"Seogu","state":"Busan","zip":"49201","country":"Korea, Republic of","geoPoint":{"lat":36.74484,"lon":127.13739}},{"facility":"Hanyang University Guri Hospital","city":"Guri-si","state":"Gyeonggido","zip":"11923","country":"Korea, Republic of","geoPoint":{"lat":37.5986,"lon":127.1394}},{"facility":"Inha University Hospital","city":"Junggu","state":"Incheon","zip":"22332","country":"Korea, Republic of","geoPoint":{"lat":37.69175,"lon":126.60024}},{"facility":"Samsung Medical Center","city":"Seoul","state":"Korea","zip":"06351","country":"Korea, Republic of","geoPoint":{"lat":37.566,"lon":126.9784}},{"facility":"Gachon University Gil Medical Center","city":"Incheon","zip":"21565","country":"Korea, Republic of","geoPoint":{"lat":37.45646,"lon":126.70515}},{"facility":"Asan Medical Center","city":"Seoul","zip":"05505","country":"Korea, Republic of","geoPoint":{"lat":37.566,"lon":126.9784}},{"facility":"Seoul St. Mary's Hospital","city":"Seoul","zip":"06591","country":"Korea, Republic of","geoPoint":{"lat":37.566,"lon":126.9784}},{"facility":"Podlaskie Centrum Psychogeriatrii","city":"Białystok","state":"Podlaskie","zip":"15-732","country":"Poland","geoPoint":{"lat":53.13333,"lon":23.16433}},{"facility":"NZOZ Dom Sue Ryder - Pallmed Sp. z o.o.","city":"Bydgoszcz","zip":"85-796","country":"Poland","geoPoint":{"lat":53.1235,"lon":18.00762}},{"facility":"NZOZ Wielospecjalistyczna Poradnia Lekarska","city":"Katowice","zip":"40-123","country":"Poland","geoPoint":{"lat":50.25841,"lon":19.02754}},{"facility":"Centrum Zdrowia Psychicznego Biomed - Jan Latala","city":"Kielce","zip":"25-411","country":"Poland","geoPoint":{"lat":50.87033,"lon":20.62752}},{"facility":"Krakowska Akademia Neurologii","city":"Krakow","zip":"31-505","country":"Poland","geoPoint":{"lat":50.06143,"lon":19.93658}},{"facility":"Medycyna Milorzab","city":"Lodz","zip":"93-118","country":"Poland","geoPoint":{"lat":51.75,"lon":19.46667}},{"facility":"Instytut Medycyny Wsi","city":"Lublin","zip":"20-950","country":"Poland","geoPoint":{"lat":51.25,"lon":22.56667}},{"facility":"Centrum Medyczne Neuroprotect","city":"Warszawa","zip":"01-697","country":"Poland","geoPoint":{"lat":52.22977,"lon":21.01178}},{"facility":"Santa Cruz Behavioral PSC","city":"Bayamón","zip":"00961-6911","country":"Puerto Rico","geoPoint":{"lat":18.39856,"lon":-66.15572}},{"facility":"SC Med Life SA","city":"Bucuresti","zip":"010719","country":"Romania","geoPoint":{"lat":44.42802,"lon":26.09665}},{"facility":"SC Centrul Medical Sana SRL","city":"Bucuresti","zip":"011025","country":"Romania","geoPoint":{"lat":44.42802,"lon":26.09665}},{"facility":"Hospital General Universitario de Elche","city":"Elche","state":"Alicante","zip":"03203","country":"Spain","geoPoint":{"lat":38.26218,"lon":-0.70107}},{"facility":"Hospital Universitari de Bellvitge","city":"Hospitalet de Llobregat","state":"Barcelona","zip":"08907","country":"Spain","geoPoint":{"lat":41.35967,"lon":2.10028}},{"facility":"Hospital Virgen Del Puerto","city":"Plasencia","state":"Caceres","zip":"10600","country":"Spain","geoPoint":{"lat":40.03116,"lon":-6.08845}},{"facility":"Hospital Universitario De Getafe","city":"Madrid","state":"Getafe","zip":"28905","country":"Spain","geoPoint":{"lat":40.4165,"lon":-3.70256}},{"facility":"CITA Alzheimer","city":"San Sebastian","state":"Guipuzcoa","zip":"20009","country":"Spain","geoPoint":{"lat":43.31283,"lon":-1.97499}},{"facility":"Centro de Atencion Especializada (CAE) OROITU","city":"Getxo","state":"Vizcaya","zip":"48993","country":"Spain","geoPoint":{"lat":43.35689,"lon":-3.01146}},{"facility":"Fundacion ACE-Institut Catala de Neurociences Aplicades","city":"Barcelona","zip":"08014","country":"Spain","geoPoint":{"lat":41.38879,"lon":2.15899}},{"facility":"Hospital Santa Creu I Sant Pau","city":"Barcelona","zip":"08025","country":"Spain","geoPoint":{"lat":41.38879,"lon":2.15899}},{"facility":"Hospital Clinic I Provincial","city":"Barcelona","zip":"08036","country":"Spain","geoPoint":{"lat":41.38879,"lon":2.15899}},{"facility":"Hospital De La Princesa","city":"Madrid","zip":"28006","country":"Spain","geoPoint":{"lat":40.4165,"lon":-3.70256}},{"facility":"Hospital Universitario Ramon y Cajal","city":"Madrid","zip":"28034","country":"Spain","geoPoint":{"lat":40.4165,"lon":-3.70256}},{"facility":"Hospital Son Espases","city":"Palma De Mallorca","zip":"07010","country":"Spain","geoPoint":{"lat":39.56939,"lon":2.65024}},{"facility":"Hospital Universitario Dr Pesset","city":"Valencia","zip":"46017","country":"Spain","geoPoint":{"lat":39.46975,"lon":-0.37739}},{"facility":"Hospital Universitario La Fe de Valencia","city":"Valencia","zip":"46026","country":"Spain","geoPoint":{"lat":39.46975,"lon":-0.37739}},{"facility":"Re-Cognition Health Ltd","city":"London","state":"Greater London","zip":"W1G 9JF","country":"United Kingdom","geoPoint":{"lat":51.50853,"lon":-0.12574}},{"facility":"MAC Clinical Research-Manchester","city":"Manchester","state":"Greater Manchester","zip":"M13 9NQ","country":"United Kingdom","geoPoint":{"lat":53.48095,"lon":-2.23743}},{"facility":"MAC Clinical Research","city":"Blackpool","state":"Lancashire","zip":"FY2 0JH","country":"United Kingdom","geoPoint":{"lat":53.81667,"lon":-3.05}},{"facility":"West London Mental Health NHS Trust","city":"Isleworth","state":"London","zip":"TW7 6FY","country":"United Kingdom","geoPoint":{"lat":51.47518,"lon":-0.34246}},{"facility":"MAC Clinical Research","city":"Cannock","state":"Staffordshire","zip":"WS11 0BN","country":"United Kingdom","geoPoint":{"lat":52.69045,"lon":-2.03085}},{"facility":"Re-Cognition Health Ltd","city":"Guildford","state":"Surrey","zip":"GU2 7YD","country":"United Kingdom","geoPoint":{"lat":51.23536,"lon":-0.57427}},{"facility":"Glasgow Memory Clinic","city":"Glasgow","zip":"G20 0XA","country":"United Kingdom","geoPoint":{"lat":55.86515,"lon":-4.25763}},{"facility":"MAC Clinical Research","city":"Leeds","zip":"LS10 1DU","country":"United Kingdom","geoPoint":{"lat":53.79648,"lon":-1.54785}}]},"referencesModule":{"seeAlsoLinks":[{"label":"Click here for more information about this study: A Study of LY3314814 in Early Alzheimer's Disease Dementia","url":"https://www.lillytrialguide.com/en-US/studies/alzheimer-s/AZFD#?postal="},{"label":"CSP","url":"https://filehosting-v2.pharmacm.com/api/Attachment/Download?tenantId=80217111&amp;parentIdentifier=16557&amp;attachmentIdentifier=a046bc93-718a-4179-8f30-4b65da56a317&amp;fileName=CSP_NCT02972658.pdf&amp;versionIdentifier="},{"label":"SAP","url":"https://filehosting-v2.pharmacm.com/api/Attachment/Download?tenantId=80217111&amp;parentIdentifier=16557&amp;attachmentIdentifier=a6ee5d0a-4796-4efd-b082-e84fbcbac489&amp;fileName=SAP_NCT02972658.pdf&amp;versionIdentifier="}]},"ipdSharingStatementModule":{"ipdSharing":"YES","description":"Anonymized individual patient level data will be provided in a secure access environment upon approval of a research proposal and a signed data sharing agreement.","infoTypes":["STUDY_PROTOCOL","SAP","CSR"],"timeFrame":"Data are available 6 months after the primary publication and approval of the indication studied in the US and EU, whichever is later. Data will be indefinitely available for requesting.","accessCriteria":"A research proposal must be approved by an independent review panel and researchers must sign a data sharing agreement.","url":"https://www.clinicalstudydatarequest.com/"}},"resultsSection":{"participantFlowModule":{"preAssignmentDetails":"Participants who were randomized in Study AZES to either 20 milligrams (mg) or 50 mg of lanabecestat continued on the treatment allocation from the feeder study. Participants randomized to placebo in Study AZES were randomized in a blinded fashion, 1:1 ratio, to either lanabecestat 20 mg or 50 mg daily (QD), administered orally.","recruitmentDetails":"Participants who completed feeder study \\[AZES (NCT02245737)\\] were enrolled in this study.","groups":[{"id":"FG000","title":"AZES Placebo/AZFD Lanabecestat 20 mg","description":"Participants who received placebo in the feeder study (AZES) were randomized to receive Lanabecestat 20 mg."},{"id":"FG001","title":"AZES Lanabecestat 20 mg/AZFD Lanabecestat 20 mg","description":"Participants who received Lanabecestat 20 mg in the feeder study (AZES) were randomized to receive Lanabecestat 20 mg."},{"id":"FG002","title":"AZES Placebo/AZFD Lanabecestat 50 mg","description":"Participants who received placebo in the feeder study (AZES) were randomized to receive Lanabecestat 50 mg."},{"id":"FG003","title":"AZES Lanabecestat 50 mg/AZFD Lanabecestat 50 mg","description":"Participants who received Lanabecestat 50 mg in the feeder study (AZES) were randomized to receive Lanabecestat 50 mg."}],"periods":[{"title":"Overall Study","milestones":[{"type":"STARTED","achievements":[{"groupId":"FG000","numSubjects":"76"},{"groupId":"FG001","numSubjects":"139"},{"groupId":"FG002","numSubjects":"75"},{"groupId":"FG003","numSubjects":"131"}]},{"type":"Received at Least 1 Dose of Study Drug","achievements":[{"groupId":"FG000","numSubjects":"76"},{"groupId":"FG001","numSubjects":"139"},{"groupId":"FG002","numSubjects":"74"},{"groupId":"FG003","numSubjects":"131"}]},{"type":"COMPLETED","achievements":[{"groupId":"FG000","numSubjects":"0"},{"groupId":"FG001","comment":"1 participant was incorrectly marked as \"Completed\" rather than study terminated by Sponsor.","numSubjects":"1"},{"groupId":"FG002","numSubjects":"0"},{"groupId":"FG003","numSubjects":"0"}]},{"type":"NOT COMPLETED","achievements":[{"groupId":"FG000","numSubjects":"76"},{"groupId":"FG001","numSubjects":"138"},{"groupId":"FG002","numSubjects":"75"},{"groupId":"FG003","numSubjects":"131"}]}],"dropWithdraws":[{"type":"Adverse Event","reasons":[{"groupId":"FG000","numSubjects":"0"},{"groupId":"FG001","numSubjects":"3"},{"groupId":"FG002","numSubjects":"0"},{"groupId":"FG003","numSubjects":"2"}]},{"type":"Other-determined by Investigator","reasons":[{"groupId":"FG000","numSubjects":"1"},{"groupId":"FG001","numSubjects":"1"},{"groupId":"FG002","numSubjects":"0"},{"groupId":"FG003","numSubjects":"0"}]},{"type":"Death","reasons":[{"groupId":"FG000","numSubjects":"0"},{"groupId":"FG001","numSubjects":"0"},{"groupId":"FG002","numSubjects":"0"},{"groupId":"FG003","numSubjects":"1"}]},{"type":"Lost to Follow-up","reasons":[{"groupId":"FG000","numSubjects":"0"},{"groupId":"FG001","numSubjects":"1"},{"groupId":"FG002","numSubjects":"1"},{"groupId":"FG003","numSubjects":"2"}]},{"type":"Progressive Disease","reasons":[{"groupId":"FG000","numSubjects":"0"},{"groupId":"FG001","numSubjects":"1"},{"groupId":"FG002","numSubjects":"0"},{"groupId":"FG003","numSubjects":"1"}]},{"type":"Withdrawal by Subject","reasons":[{"groupId":"FG000","numSubjects":"4"},{"groupId":"FG001","numSubjects":"4"},{"groupId":"FG002","numSubjects":"1"},{"groupId":"FG003","numSubjects":"6"}]},{"type":"Withdrawal due to Caregiver Circumstance","reasons":[{"groupId":"FG000","numSubjects":"1"},{"groupId":"FG001","numSubjects":"1"},{"groupId":"FG002","numSubjects":"1"},{"groupId":"FG003","numSubjects":"0"}]},{"type":"Sponsor Decision","reasons":[{"groupId":"FG000","numSubjects":"70"},{"groupId":"FG001","numSubjects":"127"},{"groupId":"FG002","numSubjects":"72"},{"groupId":"FG003","numSubjects":"119"}]}]}]},"baselineCharacteristicsModule":{"populationDescription":"All randomized participants who received study drug.","groups":[{"id":"BG000","title":"AZES Placebo/AZFD Lanabecestat 20 mg","description":"Participants who received placebo in the feeder study (AZES) were randomized to receive Lanabecestat 20 mg."},{"id":"BG001","title":"AZES Lanabecestat 20 mg/AZFD Lanabecestat 20 mg","description":"Participants who received Lanabecestat 20 mg in the feeder study (AZES) were randomized to receive Lanabecestat 20 mg."},{"id":"BG002","title":"AZES Placebo/AZFD Lanabecestat 50 mg","description":"Participants who received placebo in the feeder study (AZES) were randomized to receive Lanabecestat 50 mg."},{"id":"BG003","title":"AZES Lanabecestat 50 mg/AZFD Lanabecestat 50 mg","description":"Participants who received Lanabecestat 50 mg in the feeder study (AZES) were randomized to receive Lanabecestat 50 mg."},{"id":"BG004","title":"Total","description":"Total of all reporting groups"}],"denoms":[{"units":"Participants","counts":[{"groupId":"BG000","value":"76"},{"groupId":"BG001","value":"139"},{"groupId":"BG002","value":"75"},{"groupId":"BG003","value":"131"},{"groupId":"BG004","value":"421"}]}],"measures":[{"title":"Age, Continuous","description":"Details are from AZES baseline.","paramType":"MEAN","dispersionType":"STANDARD_DEVIATION","unitOfMeasure":"Years","classes":[{"categories":[{"measurements":[{"groupId":"BG000","value":"70.7","spread":"6.6"},{"groupId":"BG001","value":"69.8","spread":"7.8"},{"groupId":"BG002","value":"71.1","spread":"6.6"},{"groupId":"BG003","value":"70.1","spread":"6.7"},{"groupId":"BG004","value":"70.3","spread":"7.0"}]}]}]},{"title":"Sex: Female, Male","paramType":"COUNT_OF_PARTICIPANTS","unitOfMeasure":"Participants","classes":[{"categories":[{"title":"Female","measurements":[{"groupId":"BG000","value":"35"},{"groupId":"BG001","value":"76"},{"groupId":"BG002","value":"40"},{"groupId":"BG003","value":"75"},{"groupId":"BG004","value":"226"}]},{"title":"Male","measurements":[{"groupId":"BG000","value":"41"},{"groupId":"BG001","value":"63"},{"groupId":"BG002","value":"35"},{"groupId":"BG003","value":"56"},{"groupId":"BG004","value":"195"}]}]}]},{"title":"Ethnicity (NIH/OMB)","paramType":"COUNT_OF_PARTICIPANTS","unitOfMeasure":"Participants","classes":[{"categories":[{"title":"Hispanic or Latino","measurements":[{"groupId":"BG000","value":"7"},{"groupId":"BG001","value":"4"},{"groupId":"BG002","value":"4"},{"groupId":"BG003","value":"3"},{"groupId":"BG004","value":"18"}]},{"title":"Not Hispanic or Latino","measurements":[{"groupId":"BG000","value":"62"},{"groupId":"BG001","value":"115"},{"groupId":"BG002","value":"54"},{"groupId":"BG003","value":"114"},{"groupId":"BG004","value":"345"}]},{"title":"Unknown or Not Reported","measurements":[{"groupId":"BG000","value":"7"},{"groupId":"BG001","value":"20"},{"groupId":"BG002","value":"17"},{"groupId":"BG003","value":"14"},{"groupId":"BG004","value":"58"}]}]}]},{"title":"Race (NIH/OMB)","paramType":"COUNT_OF_PARTICIPANTS","unitOfMeasure":"Participants","classes":[{"categories":[{"title":"American Indian or Alaska Native","measurements":[{"groupId":"BG000","value":"0"},{"groupId":"BG001","value":"0"},{"groupId":"BG002","value":"0"},{"groupId":"BG003","value":"0"},{"groupId":"BG004","value":"0"}]},{"title":"Asian","measurements":[{"groupId":"BG000","value":"7"},{"groupId":"BG001","value":"23"},{"groupId":"BG002","value":"10"},{"groupId":"BG003","value":"16"},{"groupId":"BG004","value":"56"}]},{"title":"Native Hawaiian or Other Pacific Islander","measurements":[{"groupId":"BG000","value":"0"},{"groupId":"BG001","value":"0"},{"groupId":"BG002","value":"0"},{"groupId":"BG003","value":"0"},{"groupId":"BG004","value":"0"}]},{"title":"Black or African American","measurements":[{"groupId":"BG000","value":"0"},{"groupId":"BG001","value":"2"},{"groupId":"BG002","value":"1"},{"groupId":"BG003","value":"0"},{"groupId":"BG004","value":"3"}]},{"title":"White","measurements":[{"groupId":"BG000","value":"64"},{"groupId":"BG001","value":"104"},{"groupId":"BG002","value":"51"},{"groupId":"BG003","value":"106"},{"groupId":"BG004","value":"325"}]},{"title":"More than one race","measurements":[{"groupId":"BG000","value":"0"},{"groupId":"BG001","value":"0"},{"groupId":"BG002","value":"0"},{"groupId":"BG003","value":"0"},{"groupId":"BG004","value":"0"}]},{"title":"Unknown or Not Reported","measurements":[{"groupId":"BG000","value":"5"},{"groupId":"BG001","value":"10"},{"groupId":"BG002","value":"13"},{"groupId":"BG003","value":"9"},{"groupId":"BG004","value":"37"}]}]}]},{"title":"Region of Enrollment","paramType":"COUNT_OF_PARTICIPANTS","unitOfMeasure":"Participants","classes":[{"title":"Puerto Rico","categories":[{"measurements":[{"groupId":"BG000","value":"0"},{"groupId":"BG001","value":"1"},{"groupId":"BG002","value":"0"},{"groupId":"BG003","value":"0"},{"groupId":"BG004","value":"1"}]}]},{"title":"Romania","categories":[{"measurements":[{"groupId":"BG000","value":"1"},{"groupId":"BG001","value":"1"},{"groupId":"BG002","value":"0"},{"groupId":"BG003","value":"0"},{"groupId":"BG004","value":"2"}]}]},{"title":"Hungary","categories":[{"measurements":[{"groupId":"BG000","value":"1"},{"groupId":"BG001","value":"0"},{"groupId":"BG002","value":"0"},{"groupId":"BG003","value":"0"},{"groupId":"BG004","value":"1"}]}]},{"title":"United States","categories":[{"measurements":[{"groupId":"BG000","value":"23"},{"groupId":"BG001","value":"35"},{"groupId":"BG002","value":"13"},{"groupId":"BG003","value":"23"},{"groupId":"BG004","value":"94"}]}]},{"title":"Japan","categories":[{"measurements":[{"groupId":"BG000","value":"6"},{"groupId":"BG001","value":"14"},{"groupId":"BG002","value":"5"},{"groupId":"BG003","value":"14"},{"groupId":"BG004","value":"39"}]}]},{"title":"United Kingdom","categories":[{"measurements":[{"groupId":"BG000","value":"8"},{"groupId":"BG001","value":"17"},{"groupId":"BG002","value":"8"},{"groupId":"BG003","value":"13"},{"groupId":"BG004","value":"46"}]}]},{"title":"Spain","categories":[{"measurements":[{"groupId":"BG000","value":"10"},{"groupId":"BG001","value":"21"},{"groupId":"BG002","value":"8"},{"groupId":"BG003","value":"21"},{"groupId":"BG004","value":"60"}]}]},{"title":"Canada","categories":[{"measurements":[{"groupId":"BG000","value":"6"},{"groupId":"BG001","value":"8"},{"groupId":"BG002","value":"5"},{"groupId":"BG003","value":"14"},{"groupId":"BG004","value":"33"}]}]},{"title":"South Korea","categories":[{"measurements":[{"groupId":"BG000","value":"1"},{"groupId":"BG001","value":"7"},{"groupId":"BG002","value":"3"},{"groupId":"BG003","value":"2"},{"groupId":"BG004","value":"13"}]}]},{"title":"Belgium","categories":[{"measurements":[{"groupId":"BG000","value":"5"},{"groupId":"BG001","value":"2"},{"groupId":"BG002","value":"0"},{"groupId":"BG003","value":"4"},{"groupId":"BG004","value":"11"}]}]},{"title":"Poland","categories":[{"measurements":[{"groupId":"BG000","value":"6"},{"groupId":"BG001","value":"8"},{"groupId":"BG002","value":"6"},{"groupId":"BG003","value":"14"},{"groupId":"BG004","value":"34"}]}]},{"title":"France","categories":[{"measurements":[{"groupId":"BG000","value":"4"},{"groupId":"BG001","value":"9"},{"groupId":"BG002","value":"12"},{"groupId":"BG003","value":"8"},{"groupId":"BG004","value":"33"}]}]},{"title":"Australia","categories":[{"measurements":[{"groupId":"BG000","value":"3"},{"groupId":"BG001","value":"13"},{"groupId":"BG002","value":"8"},{"groupId":"BG003","value":"6"},{"groupId":"BG004","value":"30"}]}]},{"title":"Germany","categories":[{"measurements":[{"groupId":"BG000","value":"2"},{"groupId":"BG001","value":"3"},{"groupId":"BG002","value":"7"},{"groupId":"BG003","value":"12"},{"groupId":"BG004","value":"24"}]}]}]},{"title":"ADAS-Cog13 (13-item Alzheimer's Disease Assessment Scale)","description":"ADAS-Cog13, a 13-item rating scale, measured the severity of cognitive dysfunction in persons with Alzheimer's disease (AD). Scores ranged from 0 to 85, with a higher score indicating worse cognitive functioning. Details are from AZES baseline.","paramType":"MEAN","dispersionType":"STANDARD_DEVIATION","unitOfMeasure":"Units on a Scale","classes":[{"categories":[{"measurements":[{"groupId":"BG000","value":"27.9","spread":"8.3"},{"groupId":"BG001","value":"29.6","spread":"7.8"},{"groupId":"BG002","value":"27.0","spread":"7.5"},{"groupId":"BG003","value":"27.1","spread":"7.5"},{"groupId":"BG004","value":"27.9","spread":"7.8"}]}]}]}]},"outcomeMeasuresModule":{"outcomeMeasures":[{"type":"PRIMARY","title":"Change From Baseline Analysis on the 13-item Alzheimer's Disease Assessment Scale - Cognitive Subscale (ADAS-Cog13)","description":"ADAS-Cog13 (13-item version of ADAS-Cog) is a psychometric instrument that evaluates word recall, ability to follow commands, constructional praxis, naming, ideational praxis, orientation, word recognition, memory, comprehension of spoken language, word-finding, and language ability, with a measure of delayed word recall and concentration/ distractibility. The total score of the 13-item scale ranges from 0 to 85, with an increase in score indicating cognitive worsening. Least Squares (LS) mean was determined by mixed-model repeated measures (MMRM) model with factors for treatment, visit, treatment\\*visit, baseline efficacy score, baseline efficacy score-by-visit interaction, disease status at baseline, apolipoprotein E4 (APOE4) status, acetylcholinesterase inhibitor (AChEI) use at baseline, age at baseline, and pooled country.","populationDescription":"All AZFD participants who received at least one dose of study drug and have baseline and at least one post-baseline data for ADAS-Cog13 measure. Feeder study AZES was stopped for futility, the original Delayed Start analysis was replaced with MMRM analysis and no comparisons between treatment groups were made.","reportingStatus":"POSTED","paramType":"LEAST_SQUARES_MEAN","dispersionType":"Standard Error","unitOfMeasure":"Units on a scale","timeFrame":"AZES Baseline through AZFD Week 26","groups":[{"id":"OG000","title":"AZES Placebo/AZFD Lanabecestat 20 mg","description":"Participants who received placebo in the feeder study (AZES) received Lanabecestat 20 mg in AZFD."},{"id":"OG001","title":"AZES Lanabecestat 20 mg/AZFD Lanabecestat 20 mg","description":"Participants who received Lanabecestat 20 mg in the feeder study (AZES) received Lanabecestat 20 mg in AZFD."},{"id":"OG002","title":"AZES Placebo/AZFD Lanabecestat 50 mg","description":"Participants who received placebo in the feeder study (AZES) received Lanabecestat 50 mg in AZFD."},{"id":"OG003","title":"AZES Lanabecestat 50 mg/AZFD Lanabecestat 50 mg","description":"Participants who received Lanabecestat 50 mg in the feeder study (AZES) received Lanabecestat 50 mg in AZFD."}],"denoms":[{"units":"Participants","counts":[{"groupId":"OG000","value":"76"},{"groupId":"OG001","value":"139"},{"groupId":"OG002","value":"75"},{"groupId":"OG003","value":"131"}]}],"classes":[{"categories":[{"measurements":[{"groupId":"OG000","value":"9.61","spread":"1.60"},{"groupId":"OG001","value":"9.25","spread":"1.21"},{"groupId":"OG002","value":"8.41","spread":"1.65"},{"groupId":"OG003","value":"10.41","spread":"1.25"}]}]}]},{"type":"SECONDARY","title":"Change From Baseline Analysis on the Alzheimer´s Disease Cooperative Study Activities of Daily Living Inventory Instrumental Items (ADCS-iADL)","description":"The ADCS-ADL is a 23-item inventory developed as a rater-administered questionnaire answered by the participant's caregiver. The ADCS-ADL measures both basic and instrumental activities of daily living by participants. The range for the ADCS-iADL is 0-59 with higher scores reflecting better performance. LS Mean was determined by MMRM with factors for treatment, visit, treatment\\*visit, baseline efficacy score, baseline efficacy score-by-visit interaction, disease status at baseline, APOE4 status, AChEI use at baseline, age at baseline, and pooled country.","populationDescription":"All AZFD participants who received at least one dose of study drug and have baseline and at least one post-baseline data for ADCS-iADL measure.","reportingStatus":"POSTED","paramType":"LEAST_SQUARES_MEAN","dispersionType":"Standard Error","unitOfMeasure":"Units on a scale","timeFrame":"AZES Baseline through AZFD Week 26","groups":[{"id":"OG000","title":"AZES Placebo/AZFD Lanabecestat 20 mg","description":"Participants who received placebo in the feeder study (AZES) received Lanabecestat 20 mg in AZFD."},{"id":"OG001","title":"AZES Lanabecestat 20 mg/AZFD Lanabecestat 20 mg","description":"Participants who received Lanabecestat 20 mg in the feeder study (AZES) received Lanabecestat 20 mg in AZFD."},{"id":"OG002","title":"AZES Placebo/AZFD Lanabecestat 50 mg","description":"Participants who received placebo in the feeder study (AZES) received Lanabecestat 50 mg in AZFD."},{"id":"OG003","title":"AZES Lanabecestat 50 mg/AZFD Lanabecestat 50 mg","description":"Participants who received Lanabecestat 50 mg in the feeder study (AZES) received Lanabecestat 50 mg in AZFD."}],"denoms":[{"units":"Participants","counts":[{"groupId":"OG000","value":"76"},{"groupId":"OG001","value":"139"},{"groupId":"OG002","value":"74"},{"groupId":"OG003","value":"129"}]}],"classes":[{"categories":[{"measurements":[{"groupId":"OG000","value":"-9.19","spread":"1.47"},{"groupId":"OG001","value":"-8.45","spread":"1.10"},{"groupId":"OG002","value":"-7.37","spread":"1.51"},{"groupId":"OG003","value":"-7.48","spread":"1.14"}]}]}]},{"type":"SECONDARY","title":"Change From Baseline on the Functional Activities Questionnaire (FAQ) Score","description":"FAQ is a 10-item, caregiver-questionnaire and was administered to the study partner and asked to rate the participant's ability to perform a variety of activities ranging from writing checks, assembling tax records, shopping, playing games, food preparation, traveling, keeping appointments, traveling out of neighborhood, keeping track of current events and understanding media. FAQ total score was calculated by adding the scores from each of the 10 items. Each activity is rated on a scale from 0 to 3 (Never did and would have difficulty now =1; Never did but could do now =0; Normal =0; Has difficulty but does by self =1; Requires assistance =2; Dependent =3). FAQ scale is 0 to 30, with higher scores indicating greater impairment. LS Mean was determined by MMRM with factors for treatment, visit, treatment\\*visit, baseline efficacy score, baseline efficacy score-by-visit interaction, disease status at baseline, APOE4 status, AChEI use at baseline, age at baseline, and pooled country.","populationDescription":"All AZFD participants who received at least one dose of study drug and have baseline and at least one post-baseline data for FAQ score.","reportingStatus":"POSTED","paramType":"LEAST_SQUARES_MEAN","dispersionType":"Standard Error","unitOfMeasure":"Units on a scale","timeFrame":"AZES Baseline through AZFD Week 26","groups":[{"id":"OG000","title":"AZES Placebo/AZFD Lanabecestat 20 mg","description":"Participants who received placebo in the feeder study (AZES) received Lanabecestat 20 mg in AZFD."},{"id":"OG001","title":"AZES Lanabecestat 20 mg/AZFD Lanabecestat 20 mg","description":"Participants who received Lanabecestat 20 mg in the feeder study (AZES) received Lanabecestat 20 mg in AZFD."},{"id":"OG002","title":"AZES Placebo/AZFD Lanabecestat 50 mg","description":"Participants who received placebo in the feeder study (AZES) received Lanabecestat 50 mg in AZFD."},{"id":"OG003","title":"AZES Lanabecestat 50 mg/AZFD Lanabecestat 50 mg","description":"Participants who received Lanabecestat 50 mg in the feeder study (AZES) received Lanabecestat 50 mg in AZFD."}],"denoms":[{"units":"Participants","counts":[{"groupId":"OG000","value":"76"},{"groupId":"OG001","value":"137"},{"groupId":"OG002","value":"74"},{"groupId":"OG003","value":"130"}]}],"classes":[{"categories":[{"measurements":[{"groupId":"OG000","value":"6.28","spread":"0.98"},{"groupId":"OG001","value":"7.09","spread":"0.76"},{"groupId":"OG002","value":"6.73","spread":"1.01"},{"groupId":"OG003","value":"6.91","spread":"0.79"}]}]}]},{"type":"SECONDARY","title":"Change From Baseline on the Integrated Alzheimer's Disease Rating Scale (iADRS) Score","description":"The iADRS is a composite that measures both cognition and function. The iADRS comprises scores form the ADAS- Cog and the ADCS-iADL. The iADRS is calculated as a linear combination of the total scores of the ADAS-Cog13 (score range 0 to 85 with higher scores reflecting worse performance) and the ADCS-iADL (score range from 0-59 with higher scores reflecting better performance). The iADRS score ranges from 0 to 144 with higher scores indicating greater impairment. LS Mean was determined by MMRM with factors for treatment, visit, treatment\\*visit, baseline efficacy score, baseline efficacy score-by-visit interaction, disease status at baseline, APOE4 status, AChEI use at baseline, age at baseline, and pooled country.","populationDescription":"All AZFD participants who received at least one dose of study drug and have baseline and at least one post-baseline data for iADRS.","reportingStatus":"POSTED","paramType":"LEAST_SQUARES_MEAN","dispersionType":"Standard Error","unitOfMeasure":"Units on a scale","timeFrame":"AZES Baseline through AZFD Week 26","groups":[{"id":"OG000","title":"AZES Placebo/AZFD Lanabecestat 20 mg","description":"Participants who received placebo in the feeder study (AZES) received Lanabecestat 20 mg in AZFD."},{"id":"OG001","title":"AZES Lanabecestat 20 mg/AZFD Lanabecestat 20 mg","description":"Participants who received Lanabecestat 20 mg in the feeder study (AZES) received Lanabecestat 20 mg in AZFD."},{"id":"OG002","title":"AZES Placebo/AZFD Lanabecestat 50 mg","description":"Participants who received placebo in the feeder study (AZES) received Lanabecestat 50 mg in AZFD."},{"id":"OG003","title":"AZES Lanabecestat 50 mg/AZFD Lanabecestat 50 mg","description":"Participants who received Lanabecestat 50 mg in the feeder study (AZES) received Lanabecestat 50 mg in AZFD."}],"denoms":[{"units":"Participants","counts":[{"groupId":"OG000","value":"76"},{"groupId":"OG001","value":"138"},{"groupId":"OG002","value":"72"},{"groupId":"OG003","value":"123"}]}],"classes":[{"categories":[{"measurements":[{"groupId":"OG000","value":"-18.85","spread":"2.58"},{"groupId":"OG001","value":"-17.57","spread":"1.97"},{"groupId":"OG002","value":"-15.37","spread":"2.76"},{"groupId":"OG003","value":"-18.37","spread":"2.09"}]}]}]},{"type":"SECONDARY","title":"Change From Baseline on the Mini-Mental Status Examination (MMSE)","description":"The MMSE is an instrument used to assess a participant's cognitive function. The MMSE assesses orientation to time and place, immediate and delayed recall of words, attention and calculation, language (naming, comprehension and repetition), and spatial ability (copying a figure). The range for MMSE total Score is 0 to 30, with a higher score indicating better cognitive performance. LS Mean was determined by MMRM methodology with factors for treatment, visit, treatment\\*visit, baseline efficacy score, baseline efficacy score-by-visit interaction, disease status at baseline, APOE4 status, AChEI use at baseline, age at baseline, and pooled country.","populationDescription":"All AZFD participants who received at least one dose of study drug and have baseline and at least one post-baseline data for MMSE.","reportingStatus":"POSTED","paramType":"LEAST_SQUARES_MEAN","dispersionType":"Standard Error","unitOfMeasure":"Units on a scale","timeFrame":"AZES Baseline through AZFD Week 26","groups":[{"id":"OG000","title":"AZES Placebo/AZFD Lanabecestat 20 mg","description":"Participants who received placebo in the feeder study (AZES) received Lanabecestat 20 mg in AZFD."},{"id":"OG001","title":"AZES Lanabecestat 20 mg/AZFD Lanabecestat 20 mg","description":"Participants who received Lanabecestat 20 mg in the feeder study (AZES) received Lanabecestat 20 mg in AZFD."},{"id":"OG002","title":"AZES Placebo/AZFD Lanabecestat 50 mg","description":"Participants who received placebo in the feeder study (AZES) received Lanabecestat 50 mg in AZFD."},{"id":"OG003","title":"AZES Lanabecestat 50 mg/AZFD Lanabecestat 50 mg","description":"Participants who received Lanabecestat 50 mg in the feeder study (AZES) received Lanabecestat 50 mg in AZFD."}],"denoms":[{"units":"Participants","counts":[{"groupId":"OG000","value":"76"},{"groupId":"OG001","value":"139"},{"groupId":"OG002","value":"75"},{"groupId":"OG003","value":"131"}]}],"classes":[{"categories":[{"measurements":[{"groupId":"OG000","value":"-5.84","spread":"0.71"},{"groupId":"OG001","value":"-5.73","spread":"0.54"},{"groupId":"OG002","value":"-4.72","spread":"0.72"},{"groupId":"OG003","value":"-5.25","spread":"0.56"}]}]}]},{"type":"SECONDARY","title":"Change From Baseline Analysis on the ADAS-Cog13","description":"ADAS-cog13 (13-item ADAS cog) is a psychometric instrument that evaluates word recall, ability to follow commands, constructional praxis, naming, ideational praxis, orientation, word recognition, memory, comprehension of spoken language, word-finding, and language ability, with a measure of delayed word recall and concentration/ distractibility. The total score of the 13-item scale ranges from 0 to 85, with an increase in score indicating cognitive worsening. Least Squares (LS) mean was determined by mixed-model repeated measures (MMRM) model with factors for treatment, visit, treatment\\*visit, baseline efficacy score, baseline efficacy score-by-visit interaction, disease status at baseline, APOE4 status, AChEI use at baseline, age at baseline, and pooled country.","populationDescription":"All AZFD participants who received at least one dose of study drug and have baseline and at least one post-baseline data for ADAS-Cog13 measure.","reportingStatus":"POSTED","paramType":"LEAST_SQUARES_MEAN","dispersionType":"Standard Error","unitOfMeasure":"Units on a scale","timeFrame":"AZES Baseline through AZFD Week 52","groups":[{"id":"OG000","title":"AZES Placebo/AZFD Lanabecestat 20 mg","description":"Participants who received placebo in the feeder study (AZES) received Lanabecestat 20 mg in AZFD."},{"id":"OG001","title":"AZES Lanabecestat 20 mg/AZFD Lanabecestat 20 mg","description":"Participants who received Lanabecestat 20 mg in the feeder study (AZES) received Lanabecestat 20 mg in AZFD."},{"id":"OG002","title":"AZES Placebo/AZFD Lanabecestat 50 mg","description":"Participants who received placebo in the feeder study (AZES) received Lanabecestat 50 mg in AZFD."},{"id":"OG003","title":"AZES Lanabecestat 50 mg/AZFD Lanabecestat 50 mg","description":"Participants who received Lanabecestat 50 mg in the feeder study (AZES) received Lanabecestat 50 mg in AZFD."}],"denoms":[{"units":"Participants","counts":[{"groupId":"OG000","value":"76"},{"groupId":"OG001","value":"139"},{"groupId":"OG002","value":"75"},{"groupId":"OG003","value":"131"}]}],"classes":[{"categories":[{"measurements":[{"groupId":"OG000","value":"16.64","spread":"3.45"},{"groupId":"OG001","value":"12.40","spread":"2.25"},{"groupId":"OG002","value":"16.79","spread":"2.47"},{"groupId":"OG003","value":"15.05","spread":"2.06"}]}]}]}]},"adverseEventsModule":{"frequencyThreshold":"5","timeFrame":"Up To 156 Weeks","description":"All AZFD participants who received at least one dose of study drug.","eventGroups":[{"id":"EG000","title":"AZES Placebo/AZFD Lanabecestat 20 mg","description":"Participants who received placebo in the feeder study (AZES) received Lanabecestat 20 mg in AZFD.","deathsNumAffected":0,"deathsNumAtRisk":76,"seriousNumAffected":3,"seriousNumAtRisk":76,"otherNumAffected":11,"otherNumAtRisk":76},{"id":"EG001","title":"AZES Lanabecestat 20 mg/AZFD Lanabecestat 20 mg","description":"Participants who received Lanabecestat 20 mg in the feeder study (AZES) received Lanabecestat 20 mg in AZFD.","deathsNumAffected":0,"deathsNumAtRisk":139,"seriousNumAffected":8,"seriousNumAtRisk":139,"otherNumAffected":23,"otherNumAtRisk":139},{"id":"EG002","title":"AZES Placebo/AZFD Lanabecestat 50 mg","description":"Participants who received placebo in the feeder study (AZES) received Lanabecestat 50 mg in AZFD.","deathsNumAffected":0,"deathsNumAtRisk":74,"seriousNumAffected":5,"seriousNumAtRisk":74,"otherNumAffected":8,"otherNumAtRisk":74},{"id":"EG003","title":"AZES Lanabecestat 50 mg/AZFD Lanabecestat 50 mg","description":"Participants who received Lanabecestat 50 mg in the feeder study (AZES) received Lanabecestat 50 mg in AZFD.","deathsNumAffected":1,"deathsNumAtRisk":131,"seriousNumAffected":7,"seriousNumAtRisk":131,"otherNumAffected":17,"otherNumAtRisk":131}],"seriousEvents":[{"term":"Bradycardia","organSystem":"Cardiac disorders","sourceVocabulary":"MedDRA 21.1","assessmentType":"SYSTEMATIC_ASSESSMENT","stats":[{"groupId":"EG000","numEvents":0,"numAffected":0,"numAtRisk":76},{"groupId":"EG001","numEvents":0,"numAffected":0,"numAtRisk":139},{"groupId":"EG002","numEvents":0,"numAffected":0,"numAtRisk":74},{"groupId":"EG003","numEvents":1,"numAffected":1,"numAtRisk":131}]},{"term":"Colitis","organSystem":"Gastrointestinal disorders","sourceVocabulary":"MedDRA 21.1","assessmentType":"SYSTEMATIC_ASSESSMENT","stats":[{"groupId":"EG000","numEvents":0,"numAffected":0,"numAtRisk":76},{"groupId":"EG001","numEvents":1,"numAffected":1,"numAtRisk":139},{"groupId":"EG002","numEvents":0,"numAffected":0,"numAtRisk":74},{"groupId":"EG003","numEvents":0,"numAffected":0,"numAtRisk":131}]},{"term":"Enteritis","organSystem":"Gastrointestinal disorders","sourceVocabulary":"MedDRA 21.1","assessmentType":"SYSTEMATIC_ASSESSMENT","stats":[{"groupId":"EG000","numEvents":0,"numAffected":0,"numAtRisk":76},{"groupId":"EG001","numEvents":1,"numAffected":1,"numAtRisk":139},{"groupId":"EG002","numEvents":0,"numAffected":0,"numAtRisk":74},{"groupId":"EG003","numEvents":0,"numAffected":0,"numAtRisk":131}]},{"term":"Oesophageal motility disorder","organSystem":"Gastrointestinal disorders","sourceVocabulary":"MedDRA 21.1","assessmentType":"SYSTEMATIC_ASSESSMENT","stats":[{"groupId":"EG000","numEvents":0,"numAffected":0,"numAtRisk":76},{"groupId":"EG001","numEvents":0,"numAffected":0,"numAtRisk":139},{"groupId":"EG002","numEvents":0,"numAffected":0,"numAtRisk":74},{"groupId":"EG003","numEvents":1,"numAffected":1,"numAtRisk":131}]},{"term":"Small intestinal obstruction","organSystem":"Gastrointestinal disorders","sourceVocabulary":"MedDRA 21.1","assessmentType":"SYSTEMATIC_ASSESSMENT","stats":[{"groupId":"EG000","numEvents":0,"numAffected":0,"numAtRisk":76},{"groupId":"EG001","numEvents":0,"numAffected":0,"numAtRisk":139},{"groupId":"EG002","numEvents":1,"numAffected":1,"numAtRisk":74},{"groupId":"EG003","numEvents":0,"numAffected":0,"numAtRisk":131}]},{"term":"Diverticulitis","organSystem":"Infections and infestations","sourceVocabulary":"MedDRA 21.1","assessmentType":"SYSTEMATIC_ASSESSMENT","stats":[{"groupId":"EG000","numEvents":0,"numAffected":0,"numAtRisk":76},{"groupId":"EG001","numEvents":0,"numAffected":0,"numAtRisk":139},{"groupId":"EG002","numEvents":0,"numAffected":0,"numAtRisk":74},{"groupId":"EG003","numEvents":1,"numAffected":1,"numAtRisk":131}]},{"term":"Influenza","organSystem":"Infections and infestations","sourceVocabulary":"MedDRA 21.1","assessmentType":"SYSTEMATIC_ASSESSMENT","stats":[{"groupId":"EG000","numEvents":0,"numAffected":0,"numAtRisk":76},{"groupId":"EG001","numEvents":0,"numAffected":0,"numAtRisk":139},{"groupId":"EG002","numEvents":1,"numAffected":1,"numAtRisk":74},{"groupId":"EG003","numEvents":0,"numAffected":0,"numAtRisk":131}]},{"term":"Pneumonia","organSystem":"Infections and infestations","sourceVocabulary":"MedDRA 21.1","assessmentType":"SYSTEMATIC_ASSESSMENT","stats":[{"groupId":"EG000","numEvents":0,"numAffected":0,"numAtRisk":76},{"groupId":"EG001","numEvents":0,"numAffected":0,"numAtRisk":139},{"groupId":"EG002","numEvents":0,"numAffected":0,"numAtRisk":74},{"groupId":"EG003","numEvents":1,"numAffected":1,"numAtRisk":131}]},{"term":"Fall","organSystem":"Injury, poisoning and procedural complications","sourceVocabulary":"MedDRA 21.1","assessmentType":"SYSTEMATIC_ASSESSMENT","stats":[{"groupId":"EG000","numEvents":1,"numAffected":1,"numAtRisk":76},{"groupId":"EG001","numEvents":0,"numAffected":0,"numAtRisk":139},{"groupId":"EG002","numEvents":0,"numAffected":0,"numAtRisk":74},{"groupId":"EG003","numEvents":1,"numAffected":1,"numAtRisk":131}]},{"term":"Femoral neck fracture","organSystem":"Injury, poisoning and procedural complications","sourceVocabulary":"MedDRA 21.1","assessmentType":"SYSTEMATIC_ASSESSMENT","stats":[{"groupId":"EG000","numEvents":1,"numAffected":1,"numAtRisk":76},{"groupId":"EG001","numEvents":1,"numAffected":1,"numAtRisk":139},{"groupId":"EG002","numEvents":0,"numAffected":0,"numAtRisk":74},{"groupId":"EG003","numEvents":0,"numAffected":0,"numAtRisk":131}]},{"term":"Femur fracture","organSystem":"Injury, poisoning and procedural complications","sourceVocabulary":"MedDRA 21.1","assessmentType":"SYSTEMATIC_ASSESSMENT","stats":[{"groupId":"EG000","numEvents":0,"numAffected":0,"numAtRisk":76},{"groupId":"EG001","numEvents":0,"numAffected":0,"numAtRisk":139},{"groupId":"EG002","numEvents":0,"numAffected":0,"numAtRisk":74},{"groupId":"EG003","numEvents":1,"numAffected":1,"numAtRisk":131}]},{"term":"Radiation proctitis","organSystem":"Injury, poisoning and procedural complications","sourceVocabulary":"MedDRA 21.1","assessmentType":"SYSTEMATIC_ASSESSMENT","stats":[{"groupId":"EG000","numEvents":0,"numAffected":0,"numAtRisk":76},{"groupId":"EG001","numEvents":0,"numAffected":0,"numAtRisk":139},{"groupId":"EG002","numEvents":1,"numAffected":1,"numAtRisk":74},{"groupId":"EG003","numEvents":0,"numAffected":0,"numAtRisk":131}]},{"term":"Electrocardiogram repolarisation abnormality","organSystem":"Investigations","sourceVocabulary":"MedDRA 21.1","assessmentType":"SYSTEMATIC_ASSESSMENT","stats":[{"groupId":"EG000","numEvents":0,"numAffected":0,"numAtRisk":76},{"groupId":"EG001","numEvents":0,"numAffected":0,"numAtRisk":139},{"groupId":"EG002","numEvents":1,"numAffected":1,"numAtRisk":74},{"groupId":"EG003","numEvents":0,"numAffected":0,"numAtRisk":131}]},{"term":"Weight decreased","organSystem":"Investigations","sourceVocabulary":"MedDRA 21.1","assessmentType":"SYSTEMATIC_ASSESSMENT","stats":[{"groupId":"EG000","numEvents":0,"numAffected":0,"numAtRisk":76},{"groupId":"EG001","numEvents":0,"numAffected":0,"numAtRisk":139},{"groupId":"EG002","numEvents":0,"numAffected":0,"numAtRisk":74},{"groupId":"EG003","numEvents":1,"numAffected":1,"numAtRisk":131}]},{"term":"Back pain","organSystem":"Musculoskeletal and connective tissue disorders","sourceVocabulary":"MedDRA 21.1","assessmentType":"SYSTEMATIC_ASSESSMENT","stats":[{"groupId":"EG000","numEvents":0,"numAffected":0,"numAtRisk":76},{"groupId":"EG001","numEvents":0,"numAffected":0,"numAtRisk":139},{"groupId":"EG002","numEvents":0,"numAffected":0,"numAtRisk":74},{"groupId":"EG003","numEvents":1,"numAffected":1,"numAtRisk":131}]},{"term":"Musculoskeletal chest pain","organSystem":"Musculoskeletal and connective tissue disorders","sourceVocabulary":"MedDRA 21.1","assessmentType":"SYSTEMATIC_ASSESSMENT","stats":[{"groupId":"EG000","numEvents":0,"numAffected":0,"numAtRisk":76},{"groupId":"EG001","numEvents":0,"numAffected":0,"numAtRisk":139},{"groupId":"EG002","numEvents":0,"numAffected":0,"numAtRisk":74},{"groupId":"EG003","numEvents":1,"numAffected":1,"numAtRisk":131}]},{"term":"Breast cancer in situ","organSystem":"Neoplasms benign, malignant and unspecified (incl cysts and polyps)","sourceVocabulary":"MedDRA 21.1","assessmentType":"SYSTEMATIC_ASSESSMENT","stats":[{"groupId":"EG000","numEvents":0,"numAffected":0,"numAtRisk":76},{"groupId":"EG001","numEvents":1,"numAffected":1,"numAtRisk":139},{"groupId":"EG002","numEvents":0,"numAffected":0,"numAtRisk":74},{"groupId":"EG003","numEvents":0,"numAffected":0,"numAtRisk":131}]},{"term":"Breast cancer metastatic","organSystem":"Neoplasms benign, malignant and unspecified (incl cysts and polyps)","sourceVocabulary":"MedDRA 21.1","assessmentType":"SYSTEMATIC_ASSESSMENT","stats":[{"groupId":"EG000","numEvents":0,"numAffected":0,"numAtRisk":76},{"groupId":"EG001","numEvents":1,"numAffected":1,"numAtRisk":139},{"groupId":"EG002","numEvents":0,"numAffected":0,"numAtRisk":74},{"groupId":"EG003","numEvents":0,"numAffected":0,"numAtRisk":131}]},{"term":"Laryngeal squamous cell carcinoma","organSystem":"Neoplasms benign, malignant and unspecified (incl cysts and polyps)","sourceVocabulary":"MedDRA 21.1","assessmentType":"SYSTEMATIC_ASSESSMENT","stats":[{"groupId":"EG000","numEvents":1,"numAffected":1,"numAtRisk":76},{"groupId":"EG001","numEvents":0,"numAffected":0,"numAtRisk":139},{"groupId":"EG002","numEvents":0,"numAffected":0,"numAtRisk":74},{"groupId":"EG003","numEvents":0,"numAffected":0,"numAtRisk":131}]},{"term":"Ischaemic stroke","organSystem":"Nervous system disorders","sourceVocabulary":"MedDRA 21.1","assessmentType":"SYSTEMATIC_ASSESSMENT","stats":[{"groupId":"EG000","numEvents":0,"numAffected":0,"numAtRisk":76},{"groupId":"EG001","numEvents":1,"numAffected":1,"numAtRisk":139},{"groupId":"EG002","numEvents":0,"numAffected":0,"numAtRisk":74},{"groupId":"EG003","numEvents":0,"numAffected":0,"numAtRisk":131}]},{"term":"Optic neuritis","organSystem":"Nervous system disorders","sourceVocabulary":"MedDRA 21.1","assessmentType":"SYSTEMATIC_ASSESSMENT","stats":[{"groupId":"EG000","numEvents":0,"numAffected":0,"numAtRisk":76},{"groupId":"EG001","numEvents":1,"numAffected":1,"numAtRisk":139},{"groupId":"EG002","numEvents":0,"numAffected":0,"numAtRisk":74},{"groupId":"EG003","numEvents":0,"numAffected":0,"numAtRisk":131}]},{"term":"Depression","organSystem":"Psychiatric disorders","sourceVocabulary":"MedDRA 21.1","assessmentType":"SYSTEMATIC_ASSESSMENT","stats":[{"groupId":"EG000","numEvents":0,"numAffected":0,"numAtRisk":76},{"groupId":"EG001","numEvents":1,"numAffected":1,"numAtRisk":139},{"groupId":"EG002","numEvents":0,"numAffected":0,"numAtRisk":74},{"groupId":"EG003","numEvents":0,"numAffected":0,"numAtRisk":131}]},{"term":"Neuropsychiatric symptoms","organSystem":"Psychiatric disorders","sourceVocabulary":"MedDRA 21.1","assessmentType":"SYSTEMATIC_ASSESSMENT","stats":[{"groupId":"EG000","numEvents":0,"numAffected":0,"numAtRisk":76},{"groupId":"EG001","numEvents":0,"numAffected":0,"numAtRisk":139},{"groupId":"EG002","numEvents":1,"numAffected":1,"numAtRisk":74},{"groupId":"EG003","numEvents":1,"numAffected":1,"numAtRisk":131}]}],"otherEvents":[{"term":"Diarrhoea","organSystem":"Gastrointestinal disorders","sourceVocabulary":"MedDRA 21.1","assessmentType":"SYSTEMATIC_ASSESSMENT","stats":[{"groupId":"EG000","numEvents":2,"numAffected":2,"numAtRisk":76},{"groupId":"EG001","numEvents":8,"numAffected":8,"numAtRisk":139},{"groupId":"EG002","numEvents":2,"numAffected":2,"numAtRisk":74},{"groupId":"EG003","numEvents":6,"numAffected":6,"numAtRisk":131}]},{"term":"Nasopharyngitis","organSystem":"Infections and infestations","sourceVocabulary":"MedDRA 21.1","assessmentType":"SYSTEMATIC_ASSESSMENT","stats":[{"groupId":"EG000","numEvents":1,"numAffected":1,"numAtRisk":76},{"groupId":"EG001","numEvents":10,"numAffected":8,"numAtRisk":139},{"groupId":"EG002","numEvents":3,"numAffected":3,"numAtRisk":74},{"groupId":"EG003","numEvents":7,"numAffected":5,"numAtRisk":131}]},{"term":"Fall","organSystem":"Injury, poisoning and procedural complications","sourceVocabulary":"MedDRA 21.1","assessmentType":"SYSTEMATIC_ASSESSMENT","stats":[{"groupId":"EG000","numEvents":4,"numAffected":4,"numAtRisk":76},{"groupId":"EG001","numEvents":8,"numAffected":7,"numAtRisk":139},{"groupId":"EG002","numEvents":3,"numAffected":3,"numAtRisk":74},{"groupId":"EG003","numEvents":8,"numAffected":5,"numAtRisk":131}]},{"term":"Depression","organSystem":"Psychiatric disorders","sourceVocabulary":"MedDRA 21.1","assessmentType":"SYSTEMATIC_ASSESSMENT","stats":[{"groupId":"EG000","numEvents":4,"numAffected":4,"numAtRisk":76},{"groupId":"EG001","numEvents":3,"numAffected":3,"numAtRisk":139},{"groupId":"EG002","numEvents":0,"numAffected":0,"numAtRisk":74},{"groupId":"EG003","numEvents":2,"numAffected":2,"numAtRisk":131}]}]},"moreInfoModule":{"limitationsAndCaveats":{"description":"This study was stopped after an independent assessment concluded that the feeder study AZES was futile. Because of this, the originally planned delayed-start analysis for this study was not performed."},"certainAgreement":{"piSponsorEmployee":false,"restrictionType":"OTHER","restrictiveAgreement":true,"otherDetails":"The sponsor shall review results communications prior to public release and can embargo communications regarding trial results for a period that is more than 60 days but less than or equal to 180 days from the time submitted to the sponsor for review. Investigator shall delay publication of their results of the study until the results of the multi-center study are published or presented, provided the multi-center results are published within 24 months of the termination."},"pointOfContact":{"title":"AstraZeneca Information Center","organization":"AstraZeneca","email":"information.center@astrazeneca.com","phone":"877-240-9479"}}},"documentSection":{"largeDocumentModule":{"largeDocs":[{"typeAbbrev":"Prot","hasProtocol":true,"hasSap":false,"hasIcf":false,"label":"Study Protocol","date":"2018-02-06","uploadDate":"2019-06-04T02:01","filename":"Prot_000.pdf","size":974925},{"typeAbbrev":"SAP","hasProtocol":false,"hasSap":true,"hasIcf":false,"label":"Statistical Analysis Plan","date":"2018-08-20","uploadDate":"2019-06-04T02:02","filename":"SAP_001.pdf","size":3637512}]}},"derivedSection":{"miscInfoModule":{"versionHolder":"2025-07-25","removedCountries":["Italy"]},"conditionBrowseModule":{"meshes":[{"id":"D000544","term":"Alzheimer Disease"},{"id":"D003704","term":"Dementia"}],"ancestors":[{"id":"D001927","term":"Brain Diseases"},{"id":"D002493","term":"Central Nervous System Diseases"},{"id":"D009422","term":"Nervous System Diseases"},{"id":"D024801","term":"Tauopathies"},{"id":"D019636","term":"Neurodegenerative Diseases"},{"id":"D019965","term":"Neurocognitive Disorders"},{"id":"D001523","term":"Mental Disorders"}],"browseLeaves":[{"id":"M6301","name":"Cognition Disorders","relevance":"LOW"},{"id":"M6904","name":"Dementia","asFound":"Dementia","relevance":"HIGH"},{"id":"M14473","name":"Psychotic Disorders","relevance":"LOW"},{"id":"M4815","name":"Mental Disorders","relevance":"LOW"},{"id":"M4021","name":"Amyloidosis","relevance":"LOW"},{"id":"M5204","name":"Brain Diseases","relevance":"LOW"},{"id":"M6894","name":"Delirium","relevance":"LOW"},{"id":"M3885","name":"Alzheimer Disease","asFound":"Alzheimer's Disease","relevance":"HIGH"},{"id":"M5742","name":"Central Nervous System Diseases","relevance":"LOW"},{"id":"M21558","name":"Neurodegenerative Diseases","relevance":"LOW"},{"id":"M23002","name":"Tauopathies","relevance":"LOW"},{"id":"M21836","name":"Neurocognitive Disorders","relevance":"LOW"},{"id":"T2192","name":"Familial Alzheimer Disease","asFound":"Alzheimer's Disease","relevance":"HIGH"}],"browseBranches":[{"abbrev":"BXM","name":"Behaviors and Mental Disorders"},{"abbrev":"All","name":"All Conditions"},{"abbrev":"BC10","name":"Nervous System Diseases"},{"abbrev":"BC18","name":"Nutritional and Metabolic Diseases"},{"abbrev":"BC23","name":"Symptoms and General Pathology"},{"abbrev":"Rare","name":"Rare Diseases"}]}},"hasResults":true}