{"protocolSection":{"identificationModule":{"nctId":"NCT04464564","orgStudyIdInfo":{"id":"20-AVP-786-307"},"secondaryIdInfos":[{"id":"2020-000799-39","type":"EUDRACT_NUMBER"},{"id":"2023-504991-31-00","type":"CTIS"}],"organization":{"fullName":"Otsuka Pharmaceutical Development & Commercialization, Inc.","class":"INDUSTRY"},"briefTitle":"Study to Assess the Efficacy, Safety, and Tolerability of AVP-786 for the Treatment of Agitation in Patients With Dementia of the Alzheimer's Type","officialTitle":"A Phase 3, Multicenter, Randomized, Double-blind, Placebo-controlled Study to Assess the Efficacy, Safety, and Tolerability of AVP-786 (Deudextromethorphan Hydrobromide [d6-DM]/Quinidine Sulfate [Q]) for the Treatment of Agitation in Patients With Dementia of the Alzheimer's Type"},"statusModule":{"statusVerifiedDate":"2025-05","overallStatus":"TERMINATED","whyStopped":"The AVP-786 program was discontinued, the recruitment was stopped and all participants are no longer being examined or receiving intervention.","expandedAccessInfo":{"hasExpandedAccess":false},"startDateStruct":{"date":"2020-09-11","type":"ACTUAL"},"primaryCompletionDateStruct":{"date":"2024-06-28","type":"ACTUAL"},"completionDateStruct":{"date":"2024-06-28","type":"ACTUAL"},"studyFirstSubmitDate":"2020-07-06","studyFirstSubmitQcDate":"2020-07-06","studyFirstPostDateStruct":{"date":"2020-07-09","type":"ACTUAL"},"resultsFirstSubmitDate":"2025-04-04","resultsFirstSubmitQcDate":"2025-05-12","resultsFirstPostDateStruct":{"date":"2025-05-30","type":"ACTUAL"},"lastUpdateSubmitDate":"2025-05-12","lastUpdatePostDateStruct":{"date":"2025-05-30","type":"ACTUAL"}},"sponsorCollaboratorsModule":{"responsibleParty":{"type":"SPONSOR"},"leadSponsor":{"name":"Otsuka Pharmaceutical Development & Commercialization, Inc.","class":"INDUSTRY"}},"oversightModule":{"isFdaRegulatedDrug":true,"isFdaRegulatedDevice":false},"descriptionModule":{"briefSummary":"This study was conducted to evaluate the efficacy, safety, and tolerability of AVP-786 (deudextromethorphan hydrobromide \\[d6-DM\\]/quinidine sulfate \\[Q\\]) compared to placebo for the treatment of agitation in participants with dementia of the Alzheimer's type.","detailedDescription":"Eligible participants for this study had a diagnosis of probable Alzheimer's disease (AD) and had clinically significant, moderate/severe agitation secondary to AD.\n\nThis was multicenter, randomized, double-blind, placebo-controlled study, consisting of 12 weeks of treatment. Screening occurred within 4 weeks prior to randomization. Following screening procedures for assessment of inclusion and exclusion criteria, eligible participants were randomized into the study.\n\n241 participants were enrolled into the study.\n\nStudy medication was administered orally twice daily from Day 1 through Day 85."},"conditionsModule":{"conditions":["Agitation in Patients With Dementia of the Alzheimer's Type"],"keywords":["Agitation","Dementia of the Alzheimer's type","Alzheimer's disease","AVP-786","Deudextromethorphan hydrobromide","Quinidine sulfate"]},"designModule":{"studyType":"INTERVENTIONAL","phases":["PHASE3"],"designInfo":{"allocation":"RANDOMIZED","interventionModel":"PARALLEL","primaryPurpose":"TREATMENT","maskingInfo":{"masking":"QUADRUPLE","whoMasked":["PARTICIPANT","CARE_PROVIDER","INVESTIGATOR","OUTCOMES_ASSESSOR"]}},"enrollmentInfo":{"count":241,"type":"ACTUAL"}},"armsInterventionsModule":{"armGroups":[{"label":"Placebo","type":"PLACEBO_COMPARATOR","description":"Participants who were enrolled in 1-week double-blind placebo lead-in Period A, were then randomized to receive AVP-786 matching placebo capsules, twice a day, for 11 weeks in Period B.","interventionNames":["Drug: Placebo"]},{"label":"AVP-786-18","type":"EXPERIMENTAL","description":"Participants who were enrolled in 1-week double-blind placebo lead-in Period A, were then randomized to receive AVP-786-18 (d6-DM 18 milligrams (mg)/Q 4.9 mg) capsules, twice a day, for 11 weeks in Period B.","interventionNames":["Drug: AVP-786"]},{"label":"AVP-786-42.63","type":"EXPERIMENTAL","description":"Participants who were enrolled in 1-week double-blind placebo lead-in Period A, were then randomized to receive AVP-786-42.63 (d6-DM 42.63 mg/Q 4.9 mg) capsules, twice a day, for 11 weeks in Period B.","interventionNames":["Drug: AVP-786"]}],"interventions":[{"type":"DRUG","name":"AVP-786","description":"oral capsules","armGroupLabels":["AVP-786-18","AVP-786-42.63"]},{"type":"DRUG","name":"Placebo","description":"oral capsules","armGroupLabels":["Placebo"]}]},"outcomesModule":{"primaryOutcomes":[{"measure":"Change From the End of Period A (Week 1) to Week 10 in the Cohen-Mansfield Agitation Inventory (CMAI) Composite Score","description":"The CMAI is used to assess the frequency of manifestations of agitated behaviors in elderly persons. It consists of 29 agitated behaviors that are further categorized into distinct agitation syndromes, also known as CMAI factors of agitation. These distinct agitation syndromes include aggressive behavior, physically nonaggressive behavior, and verbally agitated behavior. Each of the 29 items is rated on a 7-point scale of frequency (1 = never, 2 = less than once a week but still occurring, 3 = once or twice a week, 4 = several times a week, 5 = once or twice a day, 6 = several times a day, 7 = several times an hour). The ratings are based on the 2 weeks preceding assessment of the CMAI. Higher scores indicate higher frequency of agitated behaviours while lower scores indicate lower frequency of agitated behaviours.","timeFrame":"Week 1 to Week 10"},{"measure":"Number of Participants With Treatment Emergent Adverse Events (TEAE) and Serious TEAE","description":"An adverse event (AE) is any untoward medical occurrence or unintended change (eg, physical, psychological, or behavioral), including inter-current illness, that does not necessarily have a causal relationship with the study treatment. A serious adverse event (SAE) is any AE occurring at any dose that results in death, life-threatening experience, persistent or significant disability/incapacity, in-patient hospitalization or prolongation of hospitalization or congenital anomaly/birth defect. TEAEs are all AEs (including serious and non-serious) which started after start of double-blind study drug treatment; or if the event was continuous from baseline and was worsening, serious, study drug related, or resulted in death, discontinuation, interruption or reduction of study therapy.","timeFrame":"From randomization (Week 2) up to 30 days after last dose of study drug (Up to Week 16)"}],"secondaryOutcomes":[{"measure":"Change From the End of Period A (Week 1) to Week 10 in the Clinical Global Impression of Severity of Illness (CGIS) Score, as Related to Agitation","description":"The CGIS is an observer-rated scale that measures illness severity. The CGIS-Agitation is a 7-point (1-7) scale (1 = normal, not at all ill; 7 = among the most extremely ill patients) and assesses severity of agitation in this study. Higher scores indicate severe agitation while the lower scores indicate little or no agitation.","timeFrame":"Week 1 to Week 10"}]},"eligibilityModule":{"eligibilityCriteria":"Inclusion Criteria:\n\n* Participants with a diagnosis of probable Alzheimer's disease according to the 2011 Neuropsychiatric Inventory Agitation/Aggression (NPI-AA) working groups criteria\n* Participants with clinically significant, moderate-to-severe agitation for at least 2 weeks prior to Screening that interferes with daily routine per the Investigator's judgment\n* Participants who require pharmacotherapy for the treatment of agitation per the Investigator's judgment after an evaluation of reversible factors and a course of nonpharmacological interventions\n* Diagnosis of agitation must meet the International Psychogeriatric Association (IPA) provisional definition of agitation.\n* Participants meeting an additional predetermined blinded eligibility criterion, which will remain blinded to the clinical study site Investigators and staff\n* Participants with a reliable caregiver who is able and willing to comply with all study procedures, including adherence to administering study drug and not administering any prohibited medications during the course of the study, and who spends a minimum of 2 hours per day for 4 days per week with the participant\n\nExclusion Criteria:\n\n* Participants with dementia predominantly of the non-Alzheimer's type (e.g., vascular dementia, frontotemporal dementia, Parkinson's disease, substance-induced dementia)\n* Participants with symptoms of agitation that are not secondary to Alzheimer's dementia (e.g., secondary to pain, other psychiatric disorder, or delirium)\n* Participants with co-existent clinically significant or unstable systemic diseases that could confound the interpretation of the safety results of the study (e.g., malignancy \\[except skin basal-cell carcinoma\\], poorly controlled diabetes, poorly controlled hypertension, unstable pulmonary, renal or hepatic disease, unstable ischemic cardiac disease, dilated cardiomyopathy, or unstable valvular heart disease)\n* Participants with myasthenia gravis","healthyVolunteers":false,"sex":"ALL","minimumAge":"50 Years","maximumAge":"90 Years","stdAges":["ADULT","OLDER_ADULT"]},"contactsLocationsModule":{"locations":[{"facility":"Clinical Research Site #840-020","city":"Phoenix","state":"Arizona","zip":"85004","country":"United States","geoPoint":{"lat":33.44838,"lon":-112.07404}},{"facility":"Clinical Research Site #840-047","city":"Anaheim","state":"California","zip":"92805","country":"United States","geoPoint":{"lat":33.83529,"lon":-117.9145}},{"facility":"Clinical Research Site #840-090","city":"Costa Mesa","state":"California","zip":"92626","country":"United States","geoPoint":{"lat":33.64113,"lon":-117.91867}},{"facility":"Clinical Research Site #840-059","city":"Lafayette","state":"California","zip":"94549","country":"United States","geoPoint":{"lat":37.88576,"lon":-122.11802}},{"facility":"Clinical Research Site #840-048","city":"Lomita","state":"California","zip":"90717","country":"United States","geoPoint":{"lat":33.79224,"lon":-118.31507}},{"facility":"Clinical Research Site #840-095","city":"Long Beach","state":"California","zip":"90807","country":"United States","geoPoint":{"lat":33.76696,"lon":-118.18923}},{"facility":"Clinical Research Site #840-004","city":"Los Angeles","state":"California","zip":"90024","country":"United States","geoPoint":{"lat":34.05223,"lon":-118.24368}},{"facility":"Clinical Research Site #840-006","city":"Panorama City","state":"California","zip":"91402","country":"United States","geoPoint":{"lat":34.22473,"lon":-118.44981}},{"facility":"Clinical Research Site","city":"San Diego","state":"California","zip":"92128","country":"United States","geoPoint":{"lat":32.71533,"lon":-117.15726}},{"facility":"Clinical Research Site #840-070","city":"Apopka","state":"Florida","zip":"32703","country":"United States","geoPoint":{"lat":28.67617,"lon":-81.51186}},{"facility":"Clinical Research Site #840-055","city":"Bradenton","state":"Florida","zip":"34205","country":"United States","geoPoint":{"lat":27.49893,"lon":-82.57482}},{"facility":"Clinical Research Site #840-096","city":"Cape Coral","state":"Florida","zip":"33904","country":"United States","geoPoint":{"lat":26.56285,"lon":-81.94953}},{"facility":"Clinical Research Site #840-077","city":"Clermont","state":"Florida","zip":"34771","country":"United States","geoPoint":{"lat":28.54944,"lon":-81.77285}},{"facility":"Clinical Research Site #840-066","city":"Coral Springs","state":"Florida","zip":"33067","country":"United States","geoPoint":{"lat":26.27119,"lon":-80.2706}},{"facility":"Clinical Research Site #840-039","city":"Hallandale Beach","state":"Florida","zip":"33009","country":"United States","geoPoint":{"lat":25.9812,"lon":-80.14838}},{"facility":"Clinical Research Site #840-089","city":"Kissimmee","state":"Florida","zip":"34741","country":"United States","geoPoint":{"lat":28.30468,"lon":-81.41667}},{"facility":"Clinical Research Site #840-034","city":"Lady Lake","state":"Florida","zip":"32159","country":"United States","geoPoint":{"lat":28.91749,"lon":-81.92286}},{"facility":"Clinical Research Site #840-037","city":"Miami","state":"Florida","zip":"33122","country":"United States","geoPoint":{"lat":25.77427,"lon":-80.19366}},{"facility":"Clinical Research Site #840-092","city":"Miami","state":"Florida","zip":"33125","country":"United States","geoPoint":{"lat":25.77427,"lon":-80.19366}},{"facility":"Clinical Research Site #840-041","city":"Miami","state":"Florida","zip":"33126","country":"United States","geoPoint":{"lat":25.77427,"lon":-80.19366}},{"facility":"Clinical Research Site #840-007","city":"Miami","state":"Florida","zip":"33145","country":"United States","geoPoint":{"lat":25.77427,"lon":-80.19366}},{"facility":"Clinical Research Site #840-103","city":"Miami","state":"Florida","zip":"33175","country":"United States","geoPoint":{"lat":25.77427,"lon":-80.19366}},{"facility":"Clinical Research Site #840-042","city":"Miami","state":"Florida","zip":"33176","country":"United States","geoPoint":{"lat":25.77427,"lon":-80.19366}},{"facility":"Clinical Research Site #840-051","city":"Naples","state":"Florida","zip":"34105","country":"United States","geoPoint":{"lat":26.14234,"lon":-81.79596}},{"facility":"Clinical Research Site #840-087","city":"Orlando","state":"Florida","zip":"32807","country":"United States","geoPoint":{"lat":28.53834,"lon":-81.37924}},{"facility":"Clinical Research Site 840-028","city":"Pensacola","state":"Florida","zip":"32502","country":"United States","geoPoint":{"lat":30.42131,"lon":-87.21691}},{"facility":"Clinical Research Site # 840-105","city":"Tampa","state":"Florida","zip":"33614","country":"United States","geoPoint":{"lat":27.94752,"lon":-82.45843}},{"facility":"Clinical Research Site #840-104","city":"Tampa","state":"Florida","zip":"33614","country":"United States","geoPoint":{"lat":27.94752,"lon":-82.45843}},{"facility":"Clinical Research Site #840-049","city":"West Palm Beach","state":"Florida","zip":"33407","country":"United States","geoPoint":{"lat":26.71534,"lon":-80.05337}},{"facility":"Clinical Research Site #840-036","city":"Winter Park","state":"Florida","zip":"32789","country":"United States","geoPoint":{"lat":28.6,"lon":-81.33924}},{"facility":"Clinical Research Site #840-065","city":"Atlanta","state":"Georgia","zip":"30318","country":"United States","geoPoint":{"lat":33.749,"lon":-84.38798}},{"facility":"Clinical Research Site #840-030","city":"Chicago","state":"Illinois","zip":"60637","country":"United States","geoPoint":{"lat":41.85003,"lon":-87.65005}},{"facility":"Clinical Research Site #840-073","city":"Boston","state":"Massachusetts","zip":"02131","country":"United States","geoPoint":{"lat":42.35843,"lon":-71.05977}},{"facility":"Clinical Research Site #840-014","city":"Bloomfield Township","state":"Michigan","zip":"48302","country":"United States","geoPoint":{"lat":42.5756,"lon":-83.27342}},{"facility":"Clinical Research Site #840-022","city":"Detroit","state":"Michigan","zip":"48201","country":"United States","geoPoint":{"lat":42.33143,"lon":-83.04575}},{"facility":"Clinical Research Site #840-024","city":"O'Fallon","state":"Missouri","zip":"63368","country":"United States","geoPoint":{"lat":38.81061,"lon":-90.69985}},{"facility":"Clinical Research Site #840-031","city":"Buffalo","state":"New York","zip":"14030","country":"United States","geoPoint":{"lat":42.88645,"lon":-78.87837}},{"facility":"Clinical Research Site #840-021","city":"Manhasset","state":"New York","zip":"11030","country":"United States","geoPoint":{"lat":40.79788,"lon":-73.69957}},{"facility":"Clinical Research Site #840-058","city":"New Hyde Park","state":"New York","zip":"11040","country":"United States","geoPoint":{"lat":40.7351,"lon":-73.68791}},{"facility":"Clinical Research Site #840-035","city":"Cypress","state":"Texas","zip":"77429","country":"United States","geoPoint":{"lat":29.96911,"lon":-95.69717}},{"facility":"Clinical Research Site #840-053","city":"Dallas","state":"Texas","zip":"75206","country":"United States","geoPoint":{"lat":32.78306,"lon":-96.80667}},{"facility":"Clinical Research Site #840-093","city":"El Paso","state":"Texas","zip":"79902","country":"United States","geoPoint":{"lat":31.75872,"lon":-106.48693}},{"facility":"Clinical Research Site #840-072","city":"Houston","state":"Texas","zip":"77063","country":"United States","geoPoint":{"lat":29.76328,"lon":-95.36327}},{"facility":"Clinical Research Site #840-057","city":"Houston","state":"Texas","zip":"77077","country":"United States","geoPoint":{"lat":29.76328,"lon":-95.36327}},{"facility":"Clinical Research Site #840-086","city":"Mesquite","state":"Texas","zip":"75149","country":"United States","geoPoint":{"lat":32.7668,"lon":-96.59916}},{"facility":"Clinical Research Site #840-044","city":"Fairfax","state":"Virginia","zip":"22031","country":"United States","geoPoint":{"lat":38.84622,"lon":-77.30637}},{"facility":"Clinical Research Site #056-005","city":"Alken","state":"Limburg","zip":"3570","country":"Belgium","geoPoint":{"lat":50.87553,"lon":5.30558}},{"facility":"Clinical Research Site #056-004","city":"Brussel","zip":"1070","country":"Belgium","geoPoint":{"lat":50.85045,"lon":4.34878}},{"facility":"Clinical Research Site #056-003","city":"Leuven","zip":"3000","country":"Belgium","geoPoint":{"lat":50.87959,"lon":4.70093}},{"facility":"Clinical Research Site # 056-002","city":"Liège","zip":"4000","country":"Belgium","geoPoint":{"lat":50.63373,"lon":5.56749}},{"facility":"Clinical Research Site #124-003","city":"Kelowna","state":"British Columbia","zip":"V1Y 1Z9","country":"Canada","geoPoint":{"lat":49.88307,"lon":-119.48568}},{"facility":"Clinical Research Site #124-008","city":"Quebec City","state":"Quebec","zip":"G3K 2P8","country":"Canada","geoPoint":{"lat":46.81228,"lon":-71.21454}},{"facility":"Clinical Research Site #152-007","city":"Viña Del Mar","state":"Region Metropolitana De Santiago","zip":"2451029","country":"Chile","geoPoint":{"lat":-33.02457,"lon":-71.55183}},{"facility":"Clinical Research Site #152-002","city":"Antofagasta","zip":"1270244","country":"Chile","geoPoint":{"lat":-23.65236,"lon":-70.3954}},{"facility":"Clinical Research Site #152-005","city":"Independencia","zip":"8380456","country":"Chile","geoPoint":{"lat":-33.41167,"lon":-70.66647}},{"facility":"Clinical Research Site #152-001","city":"Santiago de Chile","zip":"7500710","country":"Chile","geoPoint":{"lat":-33.45694,"lon":-70.64827}},{"facility":"Clinical Research Site #152-006","city":"Santiago de Chile","zip":"9120000","country":"Chile","geoPoint":{"lat":-33.45694,"lon":-70.64827}},{"facility":"Clinical Research Site #152-003","city":"Santiago","zip":"7560356","country":"Chile","geoPoint":{"lat":-33.45694,"lon":-70.64827}},{"facility":"Clinical Research Site #170-003","city":"Bogota","state":"Columbia","zip":"111166","country":"Colombia","geoPoint":{"lat":4.60971,"lon":-74.08175}},{"facility":"Clinical Research Site #170-002","city":"Pereira","state":"Columbia","zip":"1111","country":"Colombia","geoPoint":{"lat":4.81333,"lon":-75.69611}},{"facility":"Clinical Research Site #170-007","city":"Florida Blanca","state":"Santander","zip":"111511","country":"Colombia","geoPoint":{"lat":4.69203,"lon":-74.10987}},{"facility":"Clinical Research Site #170-006","city":"Bello","zip":"051050","country":"Colombia","geoPoint":{"lat":6.33732,"lon":-75.55795}},{"facility":"Clinical Research Site #170-001","city":"Bogota","zip":"110231","country":"Colombia","geoPoint":{"lat":4.60971,"lon":-74.08175}},{"facility":"Clinical Research Site #170-004","city":"Bogotá","zip":"110231","country":"Colombia","geoPoint":{"lat":4.60971,"lon":-74.08175}},{"facility":"Clinical Research Site #191-008","city":"Pula","state":"Istarska Županija","zip":"52000","country":"Croatia","geoPoint":{"lat":44.86833,"lon":13.84806}},{"facility":"Clinical Research Site# 191-006","city":"Rijeka","zip":"51000","country":"Croatia","geoPoint":{"lat":45.32674,"lon":14.44239}},{"facility":"Clinical Research Site# 191-001","city":"Zagreb","zip":"10000","country":"Croatia","geoPoint":{"lat":45.81444,"lon":15.97798}},{"facility":"Clinical Research Site #191-003","city":"Zagreb","zip":"1000","country":"Croatia","geoPoint":{"lat":45.81444,"lon":15.97798}},{"facility":"Clinical Research Site #191-005","city":"Zagreb","zip":"HR 10000","country":"Croatia","geoPoint":{"lat":45.81444,"lon":15.97798}},{"facility":"Clinical Research Site #191-002","city":"Zagreb","zip":"HR-10090","country":"Croatia","geoPoint":{"lat":45.81444,"lon":15.97798}},{"facility":"Clinical Research Site #348-002","city":"Gyöngyös","state":"Heves","zip":"3200","country":"Hungary","geoPoint":{"lat":47.78257,"lon":19.928}},{"facility":"Clinical Research Site #384-001","city":"Budapest","zip":"1036","country":"Hungary","geoPoint":{"lat":47.49801,"lon":19.03991}},{"facility":"Clinical Research Site #384-003","city":"Budapest","zip":"1036","country":"Hungary","geoPoint":{"lat":47.49801,"lon":19.03991}},{"facility":"Clinical Research Site #348-004","city":"Zalaegerszeg","zip":"8900","country":"Hungary","geoPoint":{"lat":46.84,"lon":16.84389}},{"facility":"Clinical Research Site #372-002","city":"Cork","zip":"T12 WE28","country":"Ireland","geoPoint":{"lat":51.89797,"lon":-8.47061}},{"facility":"Clinical Research Site #372-003","city":"Cork","zip":"T12 XH60","country":"Ireland","geoPoint":{"lat":51.89797,"lon":-8.47061}},{"facility":"Clinical Research Site #372-004","city":"Dublin","zip":"24","country":"Ireland","geoPoint":{"lat":53.33306,"lon":-6.24889}},{"facility":"Clinical Research Site #372-001","city":"Dublin","zip":"D08 E191","country":"Ireland","geoPoint":{"lat":53.33306,"lon":-6.24889}},{"facility":"Clinical Research Site #484-008","city":"Merida","zip":"97070","country":"Mexico","geoPoint":{"lat":20.97537,"lon":-89.61696}},{"facility":"Clinical Research Site # 484-004","city":"Mexico City","zip":"7000","country":"Mexico","geoPoint":{"lat":19.42847,"lon":-99.12766}},{"facility":"Clinical Research Site #484-006","city":"Monterrey","zip":"64310","country":"Mexico","geoPoint":{"lat":25.67507,"lon":-100.31847}},{"facility":"Clinical Research Site #484-005","city":"Monterrey","zip":"64460","country":"Mexico","geoPoint":{"lat":25.67507,"lon":-100.31847}},{"facility":"Clinical Research Site # 484-003","city":"Monterrey","zip":"64710","country":"Mexico","geoPoint":{"lat":25.67507,"lon":-100.31847}},{"facility":"Clinical Research Site #484-010","city":"Saltillo","zip":"25020","country":"Mexico","geoPoint":{"lat":25.42321,"lon":-101.0053}},{"facility":"Clinical Research Site # 484-002","city":"Sinaloa","zip":"80020","country":"Mexico"},{"facility":"Clinical Research Site #484-009","city":"Tlalnepantla","zip":"54055","country":"Mexico","geoPoint":{"lat":19.54005,"lon":-99.19538}},{"facility":"Clinical Trial Site #528-001","city":"Amsterdam","zip":"1081GN","country":"Netherlands","geoPoint":{"lat":52.37403,"lon":4.88969}},{"facility":"Clinical Research Site #703-009","city":"Dubnica Nad Váhom","state":"Bratislavský Kraj","zip":"01851","country":"Slovakia","geoPoint":{"lat":48.95981,"lon":18.16634}},{"facility":"Clinical Research Site #703-104","city":"Rimavska Sobota","state":"Sobota","zip":"97901","country":"Slovakia","geoPoint":{"lat":48.38284,"lon":20.02239}},{"facility":"Clinical Research Site #703-006","city":"Banská Bystrica","zip":"97404","country":"Slovakia","geoPoint":{"lat":48.73946,"lon":19.15349}},{"facility":"Clinical Research Site #703-002","city":"Bardejov","zip":"08501","country":"Slovakia","geoPoint":{"lat":49.29175,"lon":21.27271}},{"facility":"Clinical Research Site #703-005","city":"Košice","zip":"04001","country":"Slovakia","geoPoint":{"lat":48.71395,"lon":21.25808}},{"facility":"Clinical Research Site #703-003","city":"Trencin","zip":"91108","country":"Slovakia","geoPoint":{"lat":48.89452,"lon":18.04436}},{"facility":"Clinical Research Site #703-001","city":"Vranov Nad Topľou","zip":"09301","country":"Slovakia","geoPoint":{"lat":48.88836,"lon":21.68479}},{"facility":"Clinical Research Site #705-006","city":"Murska Sobota","state":"Brezovica","zip":"9000","country":"Slovenia","geoPoint":{"lat":46.6625,"lon":16.16639}},{"facility":"Clinical Research Site #705-004","city":"Begunje na Gorenjskem","zip":"4275","country":"Slovenia","geoPoint":{"lat":46.38333,"lon":14.21667}},{"facility":"Clinical Research Site #705-003","city":"Ljubljana","zip":"1000","country":"Slovenia","geoPoint":{"lat":46.05108,"lon":14.50513}},{"facility":"Clinical Research Site #705-002","city":"Ljubljana","zip":"1260","country":"Slovenia","geoPoint":{"lat":46.05108,"lon":14.50513}},{"facility":"Clinical Research Site #705-005","city":"Maribor","zip":"2000","country":"Slovenia","geoPoint":{"lat":46.55472,"lon":15.64667}},{"facility":"Clinical Research Site #705-001","city":"Nova Gorica","zip":"52905000","country":"Slovenia","geoPoint":{"lat":45.95604,"lon":13.64837}},{"facility":"Clinical Research Site #724-013","city":"Seville","state":"Andalucía","zip":"41013","country":"Spain","geoPoint":{"lat":37.38283,"lon":-5.97317}},{"facility":"Clinical Research Site #724-011","city":"Palma De Mallorca","state":"Baleares","zip":"07120","country":"Spain","geoPoint":{"lat":39.56939,"lon":2.65024}},{"facility":"Clinical Research Site #724-012","city":"Alicante","state":"Valenciana, Comunitat","zip":"03010","country":"Spain","geoPoint":{"lat":38.34517,"lon":-0.48149}},{"facility":"Clinical Research Site # 724-007","city":"Coslada","zip":"28882","country":"Spain","geoPoint":{"lat":40.42378,"lon":-3.56129}},{"facility":"Clinical Research Site #724-009","city":"Madrid","zip":"28006","country":"Spain","geoPoint":{"lat":40.4165,"lon":-3.70256}},{"facility":"Clinical Research Site #724-006","city":"Madrid","zip":"28049","country":"Spain","geoPoint":{"lat":40.4165,"lon":-3.70256}}]},"ipdSharingStatementModule":{"ipdSharing":"YES","description":"Anonymized Individual participant data (IPD) that underlie the results of this study will be shared with researchers to achieve aims pre-specified in a methodologically sound research proposal. Small studies with less than 25 participants are excluded from data sharing.","infoTypes":["STUDY_PROTOCOL","SAP","CSR"],"timeFrame":"Data will be available after marketing approval in global markets or beginning 1-3 years following article publication. There is no end date to the availability of the data.","accessCriteria":"Otsuka will share data on the Vivli data sharing platform which can be found here: https://vivli.org/ourmember/Otsuka/","url":"https://clinical-trials.otsuka.com"}},"resultsSection":{"participantFlowModule":{"preAssignmentDetails":"A total of 742 participants were screened for the study, of which 241 participants were enrolled and treated with placebo in a 1-week double-blind placebo lead-in period (period A). A total of 236 participants were then randomized to receive AVP-786 (deudextromethorphan hydrobromide \\[d6-DM\\]/quinidine sulfate \\[Q\\]) or placebo in the 11-week randomization period (period B).","recruitmentDetails":"Participants took part in the study at clinical sites in the North America, Latin America and Europe from 11 September 2020 to 28 June 2024.","groups":[{"id":"FG000","title":"All Enrolled","description":"Participants received AVP-786 matching placebo capsules, twice a day, for 1 week in Period A."},{"id":"FG001","title":"Placebo","description":"Participants who were enrolled in 1-week double-blind placebo lead-in Period A, were then randomized to receive AVP-786 matching placebo capsules, twice a day, for 11 weeks in Period B."},{"id":"FG002","title":"AVP-786-18","description":"Participants who were enrolled in 1-week double-blind placebo lead-in Period A, were then randomized to receive AVP-786-18 (d6-DM 18 mg/Q 4.9 mg) capsules, twice a day, for 11 weeks in Period B."},{"id":"FG003","title":"AVP-786-42.63","description":"Participants who were enrolled in 1-week double-blind placebo lead-in Period A, were then randomized to receive AVP-786-42.63 (d6-DM 42.63 mg/Q 4.9 mg) capsules, twice a day, for 11 weeks in Period B."}],"periods":[{"title":"Period A (Placebo lead-in)","milestones":[{"type":"STARTED","achievements":[{"groupId":"FG000","numSubjects":"241"},{"groupId":"FG001","numSubjects":"0"},{"groupId":"FG002","numSubjects":"0"},{"groupId":"FG003","numSubjects":"0"}]},{"type":"COMPLETED","achievements":[{"groupId":"FG000","numSubjects":"236"},{"groupId":"FG001","numSubjects":"0"},{"groupId":"FG002","numSubjects":"0"},{"groupId":"FG003","numSubjects":"0"}]},{"type":"NOT COMPLETED","achievements":[{"groupId":"FG000","numSubjects":"5"},{"groupId":"FG001","numSubjects":"0"},{"groupId":"FG002","numSubjects":"0"},{"groupId":"FG003","numSubjects":"0"}]}],"dropWithdraws":[{"type":"Other","reasons":[{"groupId":"FG000","numSubjects":"5"},{"groupId":"FG001","numSubjects":"0"},{"groupId":"FG002","numSubjects":"0"},{"groupId":"FG003","numSubjects":"0"}]}]},{"title":"Period B (Randomization Period)","milestones":[{"type":"STARTED","achievements":[{"groupId":"FG000","comment":"236 participants who completed Period A, were randomized to receive Placebo, AVP-786-18, and AVP-786-42.63 in Period B.","numSubjects":"0"},{"groupId":"FG001","comment":"Out of 236 participants who completed Period A, 76 were randomized to receive Placebo in Period B.","numSubjects":"76"},{"groupId":"FG002","comment":"Out of 236 participants who completed Period A, 83 were randomized to receive AVP-786-18 in Period B.","numSubjects":"83"},{"groupId":"FG003","comment":"Out of 236 participants who completed Period A, 77 were randomized to receive AVP-786-42.63 in Period B.","numSubjects":"77"}]},{"type":"Safety Population","achievements":[{"groupId":"FG000","numSubjects":"0"},{"groupId":"FG001","numSubjects":"76"},{"groupId":"FG002","numSubjects":"83"},{"groupId":"FG003","numSubjects":"77"}]},{"type":"COMPLETED","achievements":[{"groupId":"FG000","numSubjects":"0"},{"groupId":"FG001","numSubjects":"56"},{"groupId":"FG002","numSubjects":"61"},{"groupId":"FG003","numSubjects":"52"}]},{"type":"NOT COMPLETED","achievements":[{"groupId":"FG000","numSubjects":"0"},{"groupId":"FG001","numSubjects":"20"},{"groupId":"FG002","numSubjects":"22"},{"groupId":"FG003","numSubjects":"25"}]}],"dropWithdraws":[{"type":"Adverse Event","reasons":[{"groupId":"FG000","numSubjects":"0"},{"groupId":"FG001","numSubjects":"1"},{"groupId":"FG002","numSubjects":"2"},{"groupId":"FG003","numSubjects":"8"}]},{"type":"Lack of Efficacy","reasons":[{"groupId":"FG000","numSubjects":"0"},{"groupId":"FG001","numSubjects":"1"},{"groupId":"FG002","numSubjects":"0"},{"groupId":"FG003","numSubjects":"0"}]},{"type":"Lost to Follow-up","reasons":[{"groupId":"FG000","numSubjects":"0"},{"groupId":"FG001","numSubjects":"0"},{"groupId":"FG002","numSubjects":"0"},{"groupId":"FG003","numSubjects":"1"}]},{"type":"Study Subject Withdrawal by Parent or Guardian","reasons":[{"groupId":"FG000","numSubjects":"0"},{"groupId":"FG001","numSubjects":"3"},{"groupId":"FG002","numSubjects":"3"},{"groupId":"FG003","numSubjects":"5"}]},{"type":"Study Terminated by Sponsor","reasons":[{"groupId":"FG000","numSubjects":"0"},{"groupId":"FG001","numSubjects":"10"},{"groupId":"FG002","numSubjects":"10"},{"groupId":"FG003","numSubjects":"7"}]},{"type":"Withdrawal by Subject","reasons":[{"groupId":"FG000","numSubjects":"0"},{"groupId":"FG001","numSubjects":"2"},{"groupId":"FG002","numSubjects":"4"},{"groupId":"FG003","numSubjects":"1"}]},{"type":"Reason not Specified","reasons":[{"groupId":"FG000","numSubjects":"0"},{"groupId":"FG001","numSubjects":"3"},{"groupId":"FG002","numSubjects":"3"},{"groupId":"FG003","numSubjects":"3"}]}]}]},"baselineCharacteristicsModule":{"populationDescription":"Randomized population included all participants who were randomized in the double-blind period B of the study.","groups":[{"id":"BG000","title":"Placebo","description":"Participants were enrolled in 1-week double-blind placebo lead-in Period A, and were then randomized to receive AVP-786 matching placebo capsules, twice a day, for 11 weeks in Period B."},{"id":"BG001","title":"AVP-786-18","description":"Participants were enrolled in 1-week double-blind placebo lead-in Period A, and were then randomized to receive AVP-786-18 (d6-DM 18 mg/Q 4.9 mg) capsules, twice a day, for 11 weeks in Period B."},{"id":"BG002","title":"AVP-786-42.63","description":"Participants were enrolled in 1-week double-blind placebo lead-in Period A, and were then randomized to receive AVP-786-42.63 (d6-DM 42.63 mg/Q 4.9 mg) capsules, twice a day, for 11 weeks in Period B."},{"id":"BG003","title":"Total","description":"Total of all reporting groups"}],"denoms":[{"units":"Participants","counts":[{"groupId":"BG000","value":"76"},{"groupId":"BG001","value":"83"},{"groupId":"BG002","value":"77"},{"groupId":"BG003","value":"236"}]}],"measures":[{"title":"Age, Continuous","paramType":"MEAN","dispersionType":"STANDARD_DEVIATION","unitOfMeasure":"years","classes":[{"categories":[{"measurements":[{"groupId":"BG000","value":"75.2","spread":"7.27"},{"groupId":"BG001","value":"76.4","spread":"7.50"},{"groupId":"BG002","value":"76.5","spread":"7.43"},{"groupId":"BG003","value":"76.0","spread":"7.40"}]}]}]},{"title":"Sex: Female, Male","paramType":"COUNT_OF_PARTICIPANTS","unitOfMeasure":"Participants","classes":[{"categories":[{"title":"Female","measurements":[{"groupId":"BG000","value":"42"},{"groupId":"BG001","value":"49"},{"groupId":"BG002","value":"55"},{"groupId":"BG003","value":"146"}]},{"title":"Male","measurements":[{"groupId":"BG000","value":"34"},{"groupId":"BG001","value":"34"},{"groupId":"BG002","value":"22"},{"groupId":"BG003","value":"90"}]}]}]},{"title":"Race/Ethnicity, Customized","paramType":"COUNT_OF_PARTICIPANTS","unitOfMeasure":"Participants","classes":[{"title":"Race","categories":[{"title":"White","measurements":[{"groupId":"BG000","value":"60"},{"groupId":"BG001","value":"62"},{"groupId":"BG002","value":"57"},{"groupId":"BG003","value":"179"}]},{"title":"Black or African American","measurements":[{"groupId":"BG000","value":"8"},{"groupId":"BG001","value":"3"},{"groupId":"BG002","value":"4"},{"groupId":"BG003","value":"15"}]},{"title":"Asian","measurements":[{"groupId":"BG000","value":"0"},{"groupId":"BG001","value":"1"},{"groupId":"BG002","value":"0"},{"groupId":"BG003","value":"1"}]},{"title":"American Indian or Alaska Native","measurements":[{"groupId":"BG000","value":"5"},{"groupId":"BG001","value":"9"},{"groupId":"BG002","value":"8"},{"groupId":"BG003","value":"22"}]},{"title":"Other","measurements":[{"groupId":"BG000","value":"3"},{"groupId":"BG001","value":"8"},{"groupId":"BG002","value":"8"},{"groupId":"BG003","value":"19"}]}]}]},{"title":"Race/Ethnicity, Customized","paramType":"COUNT_OF_PARTICIPANTS","unitOfMeasure":"Participants","classes":[{"title":"Ethnicity","categories":[{"title":"Hispanic or Latino","measurements":[{"groupId":"BG000","value":"39"},{"groupId":"BG001","value":"46"},{"groupId":"BG002","value":"48"},{"groupId":"BG003","value":"133"}]},{"title":"Not Hispanic or Latino","measurements":[{"groupId":"BG000","value":"35"},{"groupId":"BG001","value":"36"},{"groupId":"BG002","value":"29"},{"groupId":"BG003","value":"100"}]},{"title":"Other","measurements":[{"groupId":"BG000","value":"2"},{"groupId":"BG001","value":"1"},{"groupId":"BG002","value":"0"},{"groupId":"BG003","value":"3"}]}]}]}]},"outcomeMeasuresModule":{"outcomeMeasures":[{"type":"PRIMARY","title":"Change From the End of Period A (Week 1) to Week 10 in the Cohen-Mansfield Agitation Inventory (CMAI) Composite Score","description":"The CMAI is used to assess the frequency of manifestations of agitated behaviors in elderly persons. It consists of 29 agitated behaviors that are further categorized into distinct agitation syndromes, also known as CMAI factors of agitation. These distinct agitation syndromes include aggressive behavior, physically nonaggressive behavior, and verbally agitated behavior. Each of the 29 items is rated on a 7-point scale of frequency (1 = never, 2 = less than once a week but still occurring, 3 = once or twice a week, 4 = several times a week, 5 = once or twice a day, 6 = several times a day, 7 = several times an hour). The ratings are based on the 2 weeks preceding assessment of the CMAI. Higher scores indicate higher frequency of agitated behaviours while lower scores indicate lower frequency of agitated behaviours.","populationDescription":"Due to discontinuation of development of the AVP-786 compound, no data was collected and analyzed as planned for this pre-specified primary efficacy outcome measure as noted in the SAP. Only safety data was collected and analyzed","reportingStatus":"POSTED","timeFrame":"Week 1 to Week 10","groups":[{"id":"OG000","title":"Placebo","description":"Participants were enrolled in 1-week double-blind placebo lead-in Period A, and were then randomized to receive AVP-786 matching placebo capsules, twice a day, for 11 weeks in Period B."},{"id":"OG001","title":"AVP-786-18","description":"Participants were enrolled in 1-week double-blind placebo lead-in Period A, and were then randomized to receive AVP-786-18 (d6-DM 18 mg/Q 4.9 mg) capsules, twice a day, for 11 weeks in Period B."},{"id":"OG002","title":"AVP-786-42.63","description":"Participants were enrolled in 1-week double-blind placebo lead-in Period A, and were then randomized to receive AVP-786-42.63 (d6-DM 42.63 mg/Q 4.9 mg) capsules, twice a day, for 11 weeks in Period B."}],"denoms":[{"units":"Participants","counts":[{"groupId":"OG000","value":"0"},{"groupId":"OG001","value":"0"},{"groupId":"OG002","value":"0"}]}]},{"type":"PRIMARY","title":"Number of Participants With Treatment Emergent Adverse Events (TEAE) and Serious TEAE","description":"An adverse event (AE) is any untoward medical occurrence or unintended change (eg, physical, psychological, or behavioral), including inter-current illness, that does not necessarily have a causal relationship with the study treatment. A serious adverse event (SAE) is any AE occurring at any dose that results in death, life-threatening experience, persistent or significant disability/incapacity, in-patient hospitalization or prolongation of hospitalization or congenital anomaly/birth defect. TEAEs are all AEs (including serious and non-serious) which started after start of double-blind study drug treatment; or if the event was continuous from baseline and was worsening, serious, study drug related, or resulted in death, discontinuation, interruption or reduction of study therapy.","populationDescription":"Safety population included of all participants who were randomized in the double-blind period B of this study, and took at least one dose of double-blind, randomized study medication. As pre-specified in the Statistical Analysis Plan (SAP), safety data was planned to be collected only for the participants who were randomized in the double-blind period B of this study.","reportingStatus":"POSTED","paramType":"COUNT_OF_PARTICIPANTS","unitOfMeasure":"Participants","timeFrame":"From randomization (Week 2) up to 30 days after last dose of study drug (Up to Week 16)","groups":[{"id":"OG000","title":"Placebo","description":"Participants were enrolled in 1-week double-blind placebo lead-in Period A, and were then randomized to receive AVP-786 matching placebo capsules, twice a day, for 11 weeks in Period B."},{"id":"OG001","title":"AVP-786-18","description":"Participants were enrolled in 1-week double-blind placebo lead-in Period A, and were then randomized to receive AVP-786-18 (d6-DM 18 mg/Q 4.9 mg) capsules, twice a day, for 11 weeks in Period B."},{"id":"OG002","title":"AVP-786-42.63","description":"Participants were enrolled in 1-week double-blind placebo lead-in Period A, and were then randomized to receive AVP-786-42.63 (d6-DM 42.63 mg/Q 4.9 mg) capsules, twice a day, for 11 weeks in Period B."}],"denoms":[{"units":"Participants","counts":[{"groupId":"OG000","value":"76"},{"groupId":"OG001","value":"83"},{"groupId":"OG002","value":"77"}]}],"classes":[{"title":"TEAEs","categories":[{"measurements":[{"groupId":"OG000","value":"25"},{"groupId":"OG001","value":"38"},{"groupId":"OG002","value":"34"}]}]},{"title":"Serious TEAEs","categories":[{"measurements":[{"groupId":"OG000","value":"4"},{"groupId":"OG001","value":"5"},{"groupId":"OG002","value":"5"}]}]}]},{"type":"SECONDARY","title":"Change From the End of Period A (Week 1) to Week 10 in the Clinical Global Impression of Severity of Illness (CGIS) Score, as Related to Agitation","description":"The CGIS is an observer-rated scale that measures illness severity. The CGIS-Agitation is a 7-point (1-7) scale (1 = normal, not at all ill; 7 = among the most extremely ill patients) and assesses severity of agitation in this study. Higher scores indicate severe agitation while the lower scores indicate little or no agitation.","populationDescription":"Due to discontinuation of development of the AVP-786 compound, no data was collected and analyzed as planned for this pre-specified secondary efficacy outcome measure as noted in the SAP. Only safety data was collected and analyzed.","reportingStatus":"POSTED","timeFrame":"Week 1 to Week 10","groups":[{"id":"OG000","title":"Placebo","description":"Participants were enrolled in 1-week double-blind placebo lead-in Period A, and were then randomized to receive AVP-786 matching placebo capsules, twice a day, for 11 weeks in Period B."},{"id":"OG001","title":"AVP-786-18","description":"Participants were enrolled in 1-week double-blind placebo lead-in Period A, and were then randomized to receive AVP-786-18 (d6-DM 18 mg/Q 4.9 mg) capsules, twice a day, for 11 weeks in Period B."},{"id":"OG002","title":"AVP-786-42.63","description":"Participants were enrolled in 1-week double-blind placebo lead-in Period A, and were then randomized to receive AVP-786-42.63 (d6-DM 42.63 mg/Q 4.9 mg) capsules, twice a day, for 11 weeks in Period B."}],"denoms":[{"units":"Participants","counts":[{"groupId":"OG000","value":"0"},{"groupId":"OG001","value":"0"},{"groupId":"OG002","value":"0"}]}]}]},"adverseEventsModule":{"frequencyThreshold":"0","timeFrame":"From randomization (Week 2) up to 30 days after last dose of study drug (Up to Week 16)","description":"Safety population included of all participants who were randomized in the double-blind period B of this study, and took at least one dose of double-blind, randomized study medication. As pre-specified in the SAP, safety data was planned to be collected only for the participants who were randomized in the double-blind period B of this study.","eventGroups":[{"id":"EG000","title":"Placebo","description":"Participants were enrolled in 1-week double-blind placebo lead-in Period A, and were then randomized to receive AVP-786 matching placebo capsules, twice a day, for 11 weeks in Period B.","deathsNumAffected":1,"deathsNumAtRisk":76,"seriousNumAffected":4,"seriousNumAtRisk":76,"otherNumAffected":25,"otherNumAtRisk":76},{"id":"EG001","title":"AVP-786-18","description":"Participants were enrolled in 1-week double-blind placebo lead-in Period A, and were then randomized to receive AVP-786-18 (d6-DM 18 mg/Q 4.9 mg) capsules, twice a day, for 11 weeks in Period B.","deathsNumAffected":0,"deathsNumAtRisk":83,"seriousNumAffected":5,"seriousNumAtRisk":83,"otherNumAffected":38,"otherNumAtRisk":83},{"id":"EG002","title":"AVP-786-42.63","description":"Participants were enrolled in 1-week double-blind placebo lead-in Period A, and were then randomized to receive AVP-786-42.63 (d6-DM 42.63 mg/Q 4.9 mg) capsules, twice a day, for 11 weeks in Period B.","deathsNumAffected":1,"deathsNumAtRisk":77,"seriousNumAffected":5,"seriousNumAtRisk":77,"otherNumAffected":32,"otherNumAtRisk":77}],"seriousEvents":[{"term":"Acute myocardial infarction","organSystem":"Cardiac disorders","sourceVocabulary":"MedDRA (27.0)","assessmentType":"SYSTEMATIC_ASSESSMENT","stats":[{"groupId":"EG000","numAffected":0,"numAtRisk":76},{"groupId":"EG001","numAffected":0,"numAtRisk":83},{"groupId":"EG002","numAffected":1,"numAtRisk":77}]},{"term":"Oesophageal achalasia","organSystem":"Gastrointestinal disorders","sourceVocabulary":"MedDRA (27.0)","assessmentType":"SYSTEMATIC_ASSESSMENT","stats":[{"groupId":"EG000","numAffected":0,"numAtRisk":76},{"groupId":"EG001","numAffected":1,"numAtRisk":83},{"groupId":"EG002","numAffected":0,"numAtRisk":77}]},{"term":"Upper gastrointestinal haemorrhage","organSystem":"Gastrointestinal disorders","sourceVocabulary":"MedDRA (27.0)","assessmentType":"SYSTEMATIC_ASSESSMENT","stats":[{"groupId":"EG000","numAffected":0,"numAtRisk":76},{"groupId":"EG001","numAffected":0,"numAtRisk":83},{"groupId":"EG002","numAffected":1,"numAtRisk":77}]},{"term":"Vomiting","organSystem":"Gastrointestinal disorders","sourceVocabulary":"MedDRA (27.0)","assessmentType":"SYSTEMATIC_ASSESSMENT","stats":[{"groupId":"EG000","numAffected":0,"numAtRisk":76},{"groupId":"EG001","numAffected":1,"numAtRisk":83},{"groupId":"EG002","numAffected":0,"numAtRisk":77}]},{"term":"Death","organSystem":"General disorders","sourceVocabulary":"MedDRA (27.0)","assessmentType":"SYSTEMATIC_ASSESSMENT","stats":[{"groupId":"EG000","numAffected":1,"numAtRisk":76},{"groupId":"EG001","numAffected":0,"numAtRisk":83},{"groupId":"EG002","numAffected":0,"numAtRisk":77}]},{"term":"COVID-19","organSystem":"Infections and infestations","sourceVocabulary":"MedDRA (27.0)","assessmentType":"SYSTEMATIC_ASSESSMENT","stats":[{"groupId":"EG000","numAffected":0,"numAtRisk":76},{"groupId":"EG001","numAffected":1,"numAtRisk":83},{"groupId":"EG002","numAffected":0,"numAtRisk":77}]},{"term":"Pneumonia","organSystem":"Infections and infestations","sourceVocabulary":"MedDRA (27.0)","assessmentType":"SYSTEMATIC_ASSESSMENT","stats":[{"groupId":"EG000","numAffected":1,"numAtRisk":76},{"groupId":"EG001","numAffected":1,"numAtRisk":83},{"groupId":"EG002","numAffected":0,"numAtRisk":77}]},{"term":"Upper respiratory tract infection","organSystem":"Infections and infestations","sourceVocabulary":"MedDRA (27.0)","assessmentType":"SYSTEMATIC_ASSESSMENT","stats":[{"groupId":"EG000","numAffected":1,"numAtRisk":76},{"groupId":"EG001","numAffected":0,"numAtRisk":83},{"groupId":"EG002","numAffected":0,"numAtRisk":77}]},{"term":"Urinary tract infection","organSystem":"Infections and infestations","sourceVocabulary":"MedDRA (27.0)","assessmentType":"SYSTEMATIC_ASSESSMENT","stats":[{"groupId":"EG000","numAffected":1,"numAtRisk":76},{"groupId":"EG001","numAffected":0,"numAtRisk":83},{"groupId":"EG002","numAffected":0,"numAtRisk":77}]},{"term":"Accidental exposure to product","organSystem":"Injury, poisoning and procedural complications","sourceVocabulary":"MedDRA (27.0)","assessmentType":"SYSTEMATIC_ASSESSMENT","stats":[{"groupId":"EG000","numAffected":1,"numAtRisk":76},{"groupId":"EG001","numAffected":0,"numAtRisk":83},{"groupId":"EG002","numAffected":0,"numAtRisk":77}]},{"term":"Cervical vertebral fracture","organSystem":"Injury, poisoning and procedural complications","sourceVocabulary":"MedDRA (27.0)","assessmentType":"SYSTEMATIC_ASSESSMENT","stats":[{"groupId":"EG000","numAffected":0,"numAtRisk":76},{"groupId":"EG001","numAffected":1,"numAtRisk":83},{"groupId":"EG002","numAffected":0,"numAtRisk":77}]},{"term":"Fall","organSystem":"Injury, poisoning and procedural complications","sourceVocabulary":"MedDRA (27.0)","assessmentType":"SYSTEMATIC_ASSESSMENT","stats":[{"groupId":"EG000","numAffected":0,"numAtRisk":76},{"groupId":"EG001","numAffected":1,"numAtRisk":83},{"groupId":"EG002","numAffected":0,"numAtRisk":77}]},{"term":"Hand fracture","organSystem":"Injury, poisoning and procedural complications","sourceVocabulary":"MedDRA (27.0)","assessmentType":"SYSTEMATIC_ASSESSMENT","stats":[{"groupId":"EG000","numAffected":0,"numAtRisk":76},{"groupId":"EG001","numAffected":1,"numAtRisk":83},{"groupId":"EG002","numAffected":0,"numAtRisk":77}]},{"term":"Hip fracture","organSystem":"Injury, poisoning and procedural complications","sourceVocabulary":"MedDRA (27.0)","assessmentType":"SYSTEMATIC_ASSESSMENT","stats":[{"groupId":"EG000","numAffected":0,"numAtRisk":76},{"groupId":"EG001","numAffected":0,"numAtRisk":83},{"groupId":"EG002","numAffected":1,"numAtRisk":77}]},{"term":"Radius fracture","organSystem":"Injury, poisoning and procedural complications","sourceVocabulary":"MedDRA (27.0)","assessmentType":"SYSTEMATIC_ASSESSMENT","stats":[{"groupId":"EG000","numAffected":0,"numAtRisk":76},{"groupId":"EG001","numAffected":1,"numAtRisk":83},{"groupId":"EG002","numAffected":0,"numAtRisk":77}]},{"term":"Dehydration","organSystem":"Metabolism and nutrition disorders","sourceVocabulary":"MedDRA (27.0)","assessmentType":"SYSTEMATIC_ASSESSMENT","stats":[{"groupId":"EG000","numAffected":0,"numAtRisk":76},{"groupId":"EG001","numAffected":1,"numAtRisk":83},{"groupId":"EG002","numAffected":0,"numAtRisk":77}]},{"term":"Dizziness","organSystem":"Nervous system disorders","sourceVocabulary":"MedDRA (27.0)","assessmentType":"SYSTEMATIC_ASSESSMENT","stats":[{"groupId":"EG000","numAffected":0,"numAtRisk":76},{"groupId":"EG001","numAffected":1,"numAtRisk":83},{"groupId":"EG002","numAffected":1,"numAtRisk":77}]},{"term":"Psychomotor hyperactivity","organSystem":"Nervous system disorders","sourceVocabulary":"MedDRA (27.0)","assessmentType":"SYSTEMATIC_ASSESSMENT","stats":[{"groupId":"EG000","numAffected":0,"numAtRisk":76},{"groupId":"EG001","numAffected":0,"numAtRisk":83},{"groupId":"EG002","numAffected":1,"numAtRisk":77}]},{"term":"Delirium","organSystem":"Psychiatric disorders","sourceVocabulary":"MedDRA (27.0)","assessmentType":"SYSTEMATIC_ASSESSMENT","stats":[{"groupId":"EG000","numAffected":1,"numAtRisk":76},{"groupId":"EG001","numAffected":0,"numAtRisk":83},{"groupId":"EG002","numAffected":0,"numAtRisk":77}]}],"otherEvents":[{"term":"Anaemia","organSystem":"Blood and lymphatic system disorders","sourceVocabulary":"MedDRA (27.0)","assessmentType":"SYSTEMATIC_ASSESSMENT","stats":[{"groupId":"EG000","numAffected":0,"numAtRisk":76},{"groupId":"EG001","numAffected":1,"numAtRisk":83},{"groupId":"EG002","numAffected":0,"numAtRisk":77}]},{"term":"Lymphopenia","organSystem":"Blood and lymphatic system disorders","sourceVocabulary":"MedDRA (27.0)","assessmentType":"SYSTEMATIC_ASSESSMENT","stats":[{"groupId":"EG000","numAffected":1,"numAtRisk":76},{"groupId":"EG001","numAffected":0,"numAtRisk":83},{"groupId":"EG002","numAffected":0,"numAtRisk":77}]},{"term":"Neutropenia","organSystem":"Blood and lymphatic system disorders","sourceVocabulary":"MedDRA (27.0)","assessmentType":"SYSTEMATIC_ASSESSMENT","stats":[{"groupId":"EG000","numAffected":1,"numAtRisk":76},{"groupId":"EG001","numAffected":0,"numAtRisk":83},{"groupId":"EG002","numAffected":0,"numAtRisk":77}]},{"term":"Thrombocytopenia","organSystem":"Blood and lymphatic system disorders","sourceVocabulary":"MedDRA (27.0)","assessmentType":"SYSTEMATIC_ASSESSMENT","stats":[{"groupId":"EG000","numAffected":0,"numAtRisk":76},{"groupId":"EG001","numAffected":1,"numAtRisk":83},{"groupId":"EG002","numAffected":0,"numAtRisk":77}]},{"term":"Atrioventricular block first degree","organSystem":"Cardiac disorders","sourceVocabulary":"MedDRA (27.0)","assessmentType":"SYSTEMATIC_ASSESSMENT","stats":[{"groupId":"EG000","numAffected":0,"numAtRisk":76},{"groupId":"EG001","numAffected":0,"numAtRisk":83},{"groupId":"EG002","numAffected":1,"numAtRisk":77}]},{"term":"Bradycardia","organSystem":"Cardiac disorders","sourceVocabulary":"MedDRA (27.0)","assessmentType":"SYSTEMATIC_ASSESSMENT","stats":[{"groupId":"EG000","numAffected":0,"numAtRisk":76},{"groupId":"EG001","numAffected":1,"numAtRisk":83},{"groupId":"EG002","numAffected":1,"numAtRisk":77}]},{"term":"Palpitations","organSystem":"Cardiac disorders","sourceVocabulary":"MedDRA (27.0)","assessmentType":"SYSTEMATIC_ASSESSMENT","stats":[{"groupId":"EG000","numAffected":0,"numAtRisk":76},{"groupId":"EG001","numAffected":0,"numAtRisk":83},{"groupId":"EG002","numAffected":1,"numAtRisk":77}]},{"term":"Sinus bradycardia","organSystem":"Cardiac disorders","sourceVocabulary":"MedDRA (27.0)","assessmentType":"SYSTEMATIC_ASSESSMENT","stats":[{"groupId":"EG000","numAffected":0,"numAtRisk":76},{"groupId":"EG001","numAffected":1,"numAtRisk":83},{"groupId":"EG002","numAffected":0,"numAtRisk":77}]},{"term":"Vertigo","organSystem":"Ear and labyrinth disorders","sourceVocabulary":"MedDRA (27.0)","assessmentType":"SYSTEMATIC_ASSESSMENT","stats":[{"groupId":"EG000","numAffected":1,"numAtRisk":76},{"groupId":"EG001","numAffected":0,"numAtRisk":83},{"groupId":"EG002","numAffected":0,"numAtRisk":77}]},{"term":"Hyperthyroidism","organSystem":"Endocrine disorders","sourceVocabulary":"MedDRA (27.0)","assessmentType":"SYSTEMATIC_ASSESSMENT","stats":[{"groupId":"EG000","numAffected":0,"numAtRisk":76},{"groupId":"EG001","numAffected":1,"numAtRisk":83},{"groupId":"EG002","numAffected":0,"numAtRisk":77}]},{"term":"Dry eye","organSystem":"Eye disorders","sourceVocabulary":"MedDRA (27.0)","assessmentType":"SYSTEMATIC_ASSESSMENT","stats":[{"groupId":"EG000","numAffected":1,"numAtRisk":76},{"groupId":"EG001","numAffected":0,"numAtRisk":83},{"groupId":"EG002","numAffected":0,"numAtRisk":77}]},{"term":"Abdominal pain","organSystem":"Gastrointestinal disorders","sourceVocabulary":"MedDRA (27.0)","assessmentType":"SYSTEMATIC_ASSESSMENT","stats":[{"groupId":"EG000","numAffected":1,"numAtRisk":76},{"groupId":"EG001","numAffected":1,"numAtRisk":83},{"groupId":"EG002","numAffected":0,"numAtRisk":77}]},{"term":"Constipation","organSystem":"Gastrointestinal disorders","sourceVocabulary":"MedDRA (27.0)","assessmentType":"SYSTEMATIC_ASSESSMENT","stats":[{"groupId":"EG000","numAffected":1,"numAtRisk":76},{"groupId":"EG001","numAffected":0,"numAtRisk":83},{"groupId":"EG002","numAffected":0,"numAtRisk":77}]},{"term":"Diarrhoea","organSystem":"Gastrointestinal disorders","sourceVocabulary":"MedDRA (27.0)","assessmentType":"SYSTEMATIC_ASSESSMENT","stats":[{"groupId":"EG000","numAffected":1,"numAtRisk":76},{"groupId":"EG001","numAffected":0,"numAtRisk":83},{"groupId":"EG002","numAffected":0,"numAtRisk":77}]},{"term":"Duodenal ulcer","organSystem":"Gastrointestinal disorders","sourceVocabulary":"MedDRA (27.0)","assessmentType":"SYSTEMATIC_ASSESSMENT","stats":[{"groupId":"EG000","numAffected":1,"numAtRisk":76},{"groupId":"EG001","numAffected":0,"numAtRisk":83},{"groupId":"EG002","numAffected":0,"numAtRisk":77}]},{"term":"Enterocolitis","organSystem":"Gastrointestinal disorders","sourceVocabulary":"MedDRA (27.0)","assessmentType":"SYSTEMATIC_ASSESSMENT","stats":[{"groupId":"EG000","numAffected":0,"numAtRisk":76},{"groupId":"EG001","numAffected":0,"numAtRisk":83},{"groupId":"EG002","numAffected":1,"numAtRisk":77}]},{"term":"Gastritis erosive","organSystem":"Gastrointestinal disorders","sourceVocabulary":"MedDRA (27.0)","assessmentType":"SYSTEMATIC_ASSESSMENT","stats":[{"groupId":"EG000","numAffected":0,"numAtRisk":76},{"groupId":"EG001","numAffected":0,"numAtRisk":83},{"groupId":"EG002","numAffected":1,"numAtRisk":77}]},{"term":"Haemorrhoids","organSystem":"Gastrointestinal disorders","sourceVocabulary":"MedDRA (27.0)","assessmentType":"SYSTEMATIC_ASSESSMENT","stats":[{"groupId":"EG000","numAffected":1,"numAtRisk":76},{"groupId":"EG001","numAffected":0,"numAtRisk":83},{"groupId":"EG002","numAffected":0,"numAtRisk":77}]},{"term":"Nausea","organSystem":"Gastrointestinal disorders","sourceVocabulary":"MedDRA (27.0)","assessmentType":"SYSTEMATIC_ASSESSMENT","stats":[{"groupId":"EG000","numAffected":1,"numAtRisk":76},{"groupId":"EG001","numAffected":1,"numAtRisk":83},{"groupId":"EG002","numAffected":0,"numAtRisk":77}]},{"term":"Toothache","organSystem":"Gastrointestinal disorders","sourceVocabulary":"MedDRA (27.0)","assessmentType":"SYSTEMATIC_ASSESSMENT","stats":[{"groupId":"EG000","numAffected":1,"numAtRisk":76},{"groupId":"EG001","numAffected":0,"numAtRisk":83},{"groupId":"EG002","numAffected":0,"numAtRisk":77}]},{"term":"Vomiting","organSystem":"Gastrointestinal disorders","sourceVocabulary":"MedDRA (27.0)","assessmentType":"SYSTEMATIC_ASSESSMENT","stats":[{"groupId":"EG000","numAffected":0,"numAtRisk":76},{"groupId":"EG001","numAffected":1,"numAtRisk":83},{"groupId":"EG002","numAffected":1,"numAtRisk":77}]},{"term":"Fatigue","organSystem":"General disorders","sourceVocabulary":"MedDRA (27.0)","assessmentType":"SYSTEMATIC_ASSESSMENT","stats":[{"groupId":"EG000","numAffected":1,"numAtRisk":76},{"groupId":"EG001","numAffected":4,"numAtRisk":83},{"groupId":"EG002","numAffected":1,"numAtRisk":77}]},{"term":"Gait disturbance","organSystem":"General disorders","sourceVocabulary":"MedDRA (27.0)","assessmentType":"SYSTEMATIC_ASSESSMENT","stats":[{"groupId":"EG000","numAffected":0,"numAtRisk":76},{"groupId":"EG001","numAffected":1,"numAtRisk":83},{"groupId":"EG002","numAffected":3,"numAtRisk":77}]},{"term":"Oedema","organSystem":"General disorders","sourceVocabulary":"MedDRA (27.0)","assessmentType":"SYSTEMATIC_ASSESSMENT","stats":[{"groupId":"EG000","numAffected":1,"numAtRisk":76},{"groupId":"EG001","numAffected":0,"numAtRisk":83},{"groupId":"EG002","numAffected":0,"numAtRisk":77}]},{"term":"Unevaluable event","organSystem":"General disorders","sourceVocabulary":"MedDRA (27.0)","assessmentType":"SYSTEMATIC_ASSESSMENT","stats":[{"groupId":"EG000","numAffected":0,"numAtRisk":76},{"groupId":"EG001","numAffected":1,"numAtRisk":83},{"groupId":"EG002","numAffected":1,"numAtRisk":77}]},{"term":"Biliary cyst","organSystem":"Hepatobiliary disorders","sourceVocabulary":"MedDRA (27.0)","assessmentType":"SYSTEMATIC_ASSESSMENT","stats":[{"groupId":"EG000","numAffected":0,"numAtRisk":76},{"groupId":"EG001","numAffected":1,"numAtRisk":83},{"groupId":"EG002","numAffected":0,"numAtRisk":77}]},{"term":"Cholelithiasis","organSystem":"Hepatobiliary disorders","sourceVocabulary":"MedDRA (27.0)","assessmentType":"SYSTEMATIC_ASSESSMENT","stats":[{"groupId":"EG000","numAffected":0,"numAtRisk":76},{"groupId":"EG001","numAffected":1,"numAtRisk":83},{"groupId":"EG002","numAffected":0,"numAtRisk":77}]},{"term":"Asymptomatic bacteriuria","organSystem":"Infections and infestations","sourceVocabulary":"MedDRA (27.0)","assessmentType":"SYSTEMATIC_ASSESSMENT","stats":[{"groupId":"EG000","numAffected":0,"numAtRisk":76},{"groupId":"EG001","numAffected":1,"numAtRisk":83},{"groupId":"EG002","numAffected":2,"numAtRisk":77}]},{"term":"Bacteriuria","organSystem":"Infections and infestations","sourceVocabulary":"MedDRA (27.0)","assessmentType":"SYSTEMATIC_ASSESSMENT","stats":[{"groupId":"EG000","numAffected":1,"numAtRisk":76},{"groupId":"EG001","numAffected":0,"numAtRisk":83},{"groupId":"EG002","numAffected":0,"numAtRisk":77}]},{"term":"Bronchitis","organSystem":"Infections and infestations","sourceVocabulary":"MedDRA (27.0)","assessmentType":"SYSTEMATIC_ASSESSMENT","stats":[{"groupId":"EG000","numAffected":1,"numAtRisk":76},{"groupId":"EG001","numAffected":1,"numAtRisk":83},{"groupId":"EG002","numAffected":0,"numAtRisk":77}]},{"term":"COVID-19","organSystem":"Infections and infestations","sourceVocabulary":"MedDRA (27.0)","assessmentType":"SYSTEMATIC_ASSESSMENT","stats":[{"groupId":"EG000","numAffected":1,"numAtRisk":76},{"groupId":"EG001","numAffected":0,"numAtRisk":83},{"groupId":"EG002","numAffected":2,"numAtRisk":77}]},{"term":"Gastroenteritis","organSystem":"Infections and infestations","sourceVocabulary":"MedDRA (27.0)","assessmentType":"SYSTEMATIC_ASSESSMENT","stats":[{"groupId":"EG000","numAffected":1,"numAtRisk":76},{"groupId":"EG001","numAffected":1,"numAtRisk":83},{"groupId":"EG002","numAffected":0,"numAtRisk":77}]},{"term":"Influenza","organSystem":"Infections and infestations","sourceVocabulary":"MedDRA (27.0)","assessmentType":"SYSTEMATIC_ASSESSMENT","stats":[{"groupId":"EG000","numAffected":0,"numAtRisk":76},{"groupId":"EG001","numAffected":0,"numAtRisk":83},{"groupId":"EG002","numAffected":2,"numAtRisk":77}]},{"term":"Nasopharyngitis","organSystem":"Infections and infestations","sourceVocabulary":"MedDRA (27.0)","assessmentType":"SYSTEMATIC_ASSESSMENT","stats":[{"groupId":"EG000","numAffected":0,"numAtRisk":76},{"groupId":"EG001","numAffected":2,"numAtRisk":83},{"groupId":"EG002","numAffected":0,"numAtRisk":77}]},{"term":"Oesophageal candidiasis","organSystem":"Infections and infestations","sourceVocabulary":"MedDRA (27.0)","assessmentType":"SYSTEMATIC_ASSESSMENT","stats":[{"groupId":"EG000","numAffected":0,"numAtRisk":76},{"groupId":"EG001","numAffected":0,"numAtRisk":83},{"groupId":"EG002","numAffected":1,"numAtRisk":77}]},{"term":"Periodontitis","organSystem":"Infections and infestations","sourceVocabulary":"MedDRA (27.0)","assessmentType":"SYSTEMATIC_ASSESSMENT","stats":[{"groupId":"EG000","numAffected":0,"numAtRisk":76},{"groupId":"EG001","numAffected":0,"numAtRisk":83},{"groupId":"EG002","numAffected":1,"numAtRisk":77}]},{"term":"Upper respiratory tract infection","organSystem":"Infections and infestations","sourceVocabulary":"MedDRA (27.0)","assessmentType":"SYSTEMATIC_ASSESSMENT","stats":[{"groupId":"EG000","numAffected":1,"numAtRisk":76},{"groupId":"EG001","numAffected":0,"numAtRisk":83},{"groupId":"EG002","numAffected":0,"numAtRisk":77}]},{"term":"Urinary tract infection","organSystem":"Infections and infestations","sourceVocabulary":"MedDRA (27.0)","assessmentType":"SYSTEMATIC_ASSESSMENT","stats":[{"groupId":"EG000","numAffected":1,"numAtRisk":76},{"groupId":"EG001","numAffected":5,"numAtRisk":83},{"groupId":"EG002","numAffected":4,"numAtRisk":77}]},{"term":"Viral infection","organSystem":"Infections and infestations","sourceVocabulary":"MedDRA (27.0)","assessmentType":"SYSTEMATIC_ASSESSMENT","stats":[{"groupId":"EG000","numAffected":0,"numAtRisk":76},{"groupId":"EG001","numAffected":0,"numAtRisk":83},{"groupId":"EG002","numAffected":1,"numAtRisk":77}]},{"term":"Viral rhinitis","organSystem":"Infections and infestations","sourceVocabulary":"MedDRA (27.0)","assessmentType":"SYSTEMATIC_ASSESSMENT","stats":[{"groupId":"EG000","numAffected":0,"numAtRisk":76},{"groupId":"EG001","numAffected":1,"numAtRisk":83},{"groupId":"EG002","numAffected":0,"numAtRisk":77}]},{"term":"Wound infection","organSystem":"Infections and infestations","sourceVocabulary":"MedDRA (27.0)","assessmentType":"SYSTEMATIC_ASSESSMENT","stats":[{"groupId":"EG000","numAffected":0,"numAtRisk":76},{"groupId":"EG001","numAffected":0,"numAtRisk":83},{"groupId":"EG002","numAffected":1,"numAtRisk":77}]},{"term":"Contusion","organSystem":"Injury, poisoning and procedural complications","sourceVocabulary":"MedDRA (27.0)","assessmentType":"SYSTEMATIC_ASSESSMENT","stats":[{"groupId":"EG000","numAffected":0,"numAtRisk":76},{"groupId":"EG001","numAffected":0,"numAtRisk":83},{"groupId":"EG002","numAffected":1,"numAtRisk":77}]},{"term":"Corneal abrasion","organSystem":"Injury, poisoning and procedural complications","sourceVocabulary":"MedDRA (27.0)","assessmentType":"SYSTEMATIC_ASSESSMENT","stats":[{"groupId":"EG000","numAffected":1,"numAtRisk":76},{"groupId":"EG001","numAffected":0,"numAtRisk":83},{"groupId":"EG002","numAffected":0,"numAtRisk":77}]},{"term":"Eye contusion","organSystem":"Injury, poisoning and procedural complications","sourceVocabulary":"MedDRA (27.0)","assessmentType":"SYSTEMATIC_ASSESSMENT","stats":[{"groupId":"EG000","numAffected":0,"numAtRisk":76},{"groupId":"EG001","numAffected":0,"numAtRisk":83},{"groupId":"EG002","numAffected":1,"numAtRisk":77}]},{"term":"Fall","organSystem":"Injury, poisoning and procedural complications","sourceVocabulary":"MedDRA (27.0)","assessmentType":"SYSTEMATIC_ASSESSMENT","stats":[{"groupId":"EG000","numAffected":3,"numAtRisk":76},{"groupId":"EG001","numAffected":7,"numAtRisk":83},{"groupId":"EG002","numAffected":9,"numAtRisk":77}]},{"term":"Ligament sprain","organSystem":"Injury, poisoning and procedural complications","sourceVocabulary":"MedDRA (27.0)","assessmentType":"SYSTEMATIC_ASSESSMENT","stats":[{"groupId":"EG000","numAffected":0,"numAtRisk":76},{"groupId":"EG001","numAffected":1,"numAtRisk":83},{"groupId":"EG002","numAffected":0,"numAtRisk":77}]},{"term":"Radius fracture","organSystem":"Injury, poisoning and procedural complications","sourceVocabulary":"MedDRA (27.0)","assessmentType":"SYSTEMATIC_ASSESSMENT","stats":[{"groupId":"EG000","numAffected":0,"numAtRisk":76},{"groupId":"EG001","numAffected":0,"numAtRisk":83},{"groupId":"EG002","numAffected":1,"numAtRisk":77}]},{"term":"Ulna fracture","organSystem":"Injury, poisoning and procedural complications","sourceVocabulary":"MedDRA (27.0)","assessmentType":"SYSTEMATIC_ASSESSMENT","stats":[{"groupId":"EG000","numAffected":0,"numAtRisk":76},{"groupId":"EG001","numAffected":0,"numAtRisk":83},{"groupId":"EG002","numAffected":1,"numAtRisk":77}]},{"term":"Alanine aminotransferase abnormal","organSystem":"Investigations","sourceVocabulary":"MedDRA (27.0)","assessmentType":"SYSTEMATIC_ASSESSMENT","stats":[{"groupId":"EG000","numAffected":1,"numAtRisk":76},{"groupId":"EG001","numAffected":0,"numAtRisk":83},{"groupId":"EG002","numAffected":0,"numAtRisk":77}]},{"term":"Aspartate aminotransferase increased","organSystem":"Investigations","sourceVocabulary":"MedDRA (27.0)","assessmentType":"SYSTEMATIC_ASSESSMENT","stats":[{"groupId":"EG000","numAffected":1,"numAtRisk":76},{"groupId":"EG001","numAffected":0,"numAtRisk":83},{"groupId":"EG002","numAffected":0,"numAtRisk":77}]},{"term":"Blood alkaline phosphatase abnormal","organSystem":"Investigations","sourceVocabulary":"MedDRA (27.0)","assessmentType":"SYSTEMATIC_ASSESSMENT","stats":[{"groupId":"EG000","numAffected":1,"numAtRisk":76},{"groupId":"EG001","numAffected":0,"numAtRisk":83},{"groupId":"EG002","numAffected":0,"numAtRisk":77}]},{"term":"Blood creatinine increased","organSystem":"Investigations","sourceVocabulary":"MedDRA (27.0)","assessmentType":"SYSTEMATIC_ASSESSMENT","stats":[{"groupId":"EG000","numAffected":0,"numAtRisk":76},{"groupId":"EG001","numAffected":1,"numAtRisk":83},{"groupId":"EG002","numAffected":0,"numAtRisk":77}]},{"term":"Blood glucose increased","organSystem":"Investigations","sourceVocabulary":"MedDRA (27.0)","assessmentType":"SYSTEMATIC_ASSESSMENT","stats":[{"groupId":"EG000","numAffected":1,"numAtRisk":76},{"groupId":"EG001","numAffected":0,"numAtRisk":83},{"groupId":"EG002","numAffected":0,"numAtRisk":77}]},{"term":"Blood lactate dehydrogenase increased","organSystem":"Investigations","sourceVocabulary":"MedDRA (27.0)","assessmentType":"SYSTEMATIC_ASSESSMENT","stats":[{"groupId":"EG000","numAffected":0,"numAtRisk":76},{"groupId":"EG001","numAffected":1,"numAtRisk":83},{"groupId":"EG002","numAffected":0,"numAtRisk":77}]},{"term":"Blood potassium increased","organSystem":"Investigations","sourceVocabulary":"MedDRA (27.0)","assessmentType":"SYSTEMATIC_ASSESSMENT","stats":[{"groupId":"EG000","numAffected":1,"numAtRisk":76},{"groupId":"EG001","numAffected":0,"numAtRisk":83},{"groupId":"EG002","numAffected":0,"numAtRisk":77}]},{"term":"Blood triglycerides increased","organSystem":"Investigations","sourceVocabulary":"MedDRA (27.0)","assessmentType":"SYSTEMATIC_ASSESSMENT","stats":[{"groupId":"EG000","numAffected":1,"numAtRisk":76},{"groupId":"EG001","numAffected":0,"numAtRisk":83},{"groupId":"EG002","numAffected":0,"numAtRisk":77}]},{"term":"Blood urea increased","organSystem":"Investigations","sourceVocabulary":"MedDRA (27.0)","assessmentType":"SYSTEMATIC_ASSESSMENT","stats":[{"groupId":"EG000","numAffected":0,"numAtRisk":76},{"groupId":"EG001","numAffected":1,"numAtRisk":83},{"groupId":"EG002","numAffected":0,"numAtRisk":77}]},{"term":"Gamma-glutamyltransferase abnormal","organSystem":"Investigations","sourceVocabulary":"MedDRA (27.0)","assessmentType":"SYSTEMATIC_ASSESSMENT","stats":[{"groupId":"EG000","numAffected":1,"numAtRisk":76},{"groupId":"EG001","numAffected":0,"numAtRisk":83},{"groupId":"EG002","numAffected":0,"numAtRisk":77}]},{"term":"Gamma-glutamyltransferase increased","organSystem":"Investigations","sourceVocabulary":"MedDRA (27.0)","assessmentType":"SYSTEMATIC_ASSESSMENT","stats":[{"groupId":"EG000","numAffected":0,"numAtRisk":76},{"groupId":"EG001","numAffected":0,"numAtRisk":83},{"groupId":"EG002","numAffected":1,"numAtRisk":77}]},{"term":"Heart rate decreased","organSystem":"Investigations","sourceVocabulary":"MedDRA (27.0)","assessmentType":"SYSTEMATIC_ASSESSMENT","stats":[{"groupId":"EG000","numAffected":0,"numAtRisk":76},{"groupId":"EG001","numAffected":0,"numAtRisk":83},{"groupId":"EG002","numAffected":1,"numAtRisk":77}]},{"term":"Neutrophil count increased","organSystem":"Investigations","sourceVocabulary":"MedDRA (27.0)","assessmentType":"SYSTEMATIC_ASSESSMENT","stats":[{"groupId":"EG000","numAffected":1,"numAtRisk":76},{"groupId":"EG001","numAffected":0,"numAtRisk":83},{"groupId":"EG002","numAffected":0,"numAtRisk":77}]},{"term":"Oesophagogastroduodenoscopy","organSystem":"Investigations","sourceVocabulary":"MedDRA (27.0)","assessmentType":"SYSTEMATIC_ASSESSMENT","stats":[{"groupId":"EG000","numAffected":0,"numAtRisk":76},{"groupId":"EG001","numAffected":1,"numAtRisk":83},{"groupId":"EG002","numAffected":0,"numAtRisk":77}]},{"term":"SARS-CoV-2 test positive","organSystem":"Investigations","sourceVocabulary":"MedDRA (27.0)","assessmentType":"SYSTEMATIC_ASSESSMENT","stats":[{"groupId":"EG000","numAffected":1,"numAtRisk":76},{"groupId":"EG001","numAffected":0,"numAtRisk":83},{"groupId":"EG002","numAffected":0,"numAtRisk":77}]},{"term":"Urine analysis abnormal","organSystem":"Investigations","sourceVocabulary":"MedDRA (27.0)","assessmentType":"SYSTEMATIC_ASSESSMENT","stats":[{"groupId":"EG000","numAffected":1,"numAtRisk":76},{"groupId":"EG001","numAffected":0,"numAtRisk":83},{"groupId":"EG002","numAffected":0,"numAtRisk":77}]},{"term":"Weight decreased","organSystem":"Investigations","sourceVocabulary":"MedDRA (27.0)","assessmentType":"SYSTEMATIC_ASSESSMENT","stats":[{"groupId":"EG000","numAffected":1,"numAtRisk":76},{"groupId":"EG001","numAffected":0,"numAtRisk":83},{"groupId":"EG002","numAffected":0,"numAtRisk":77}]},{"term":"Decreased appetite","organSystem":"Metabolism and nutrition disorders","sourceVocabulary":"MedDRA (27.0)","assessmentType":"SYSTEMATIC_ASSESSMENT","stats":[{"groupId":"EG000","numAffected":1,"numAtRisk":76},{"groupId":"EG001","numAffected":1,"numAtRisk":83},{"groupId":"EG002","numAffected":1,"numAtRisk":77}]},{"term":"Dehydration","organSystem":"Metabolism and nutrition disorders","sourceVocabulary":"MedDRA (27.0)","assessmentType":"SYSTEMATIC_ASSESSMENT","stats":[{"groupId":"EG000","numAffected":1,"numAtRisk":76},{"groupId":"EG001","numAffected":0,"numAtRisk":83},{"groupId":"EG002","numAffected":0,"numAtRisk":77}]},{"term":"Dyslipidaemia","organSystem":"Metabolism and nutrition disorders","sourceVocabulary":"MedDRA (27.0)","assessmentType":"SYSTEMATIC_ASSESSMENT","stats":[{"groupId":"EG000","numAffected":0,"numAtRisk":76},{"groupId":"EG001","numAffected":2,"numAtRisk":83},{"groupId":"EG002","numAffected":0,"numAtRisk":77}]},{"term":"Hyperglycaemia","organSystem":"Metabolism and nutrition disorders","sourceVocabulary":"MedDRA (27.0)","assessmentType":"SYSTEMATIC_ASSESSMENT","stats":[{"groupId":"EG000","numAffected":0,"numAtRisk":76},{"groupId":"EG001","numAffected":0,"numAtRisk":83},{"groupId":"EG002","numAffected":1,"numAtRisk":77}]},{"term":"Hypertriglyceridaemia","organSystem":"Metabolism and nutrition disorders","sourceVocabulary":"MedDRA (27.0)","assessmentType":"SYSTEMATIC_ASSESSMENT","stats":[{"groupId":"EG000","numAffected":0,"numAtRisk":76},{"groupId":"EG001","numAffected":0,"numAtRisk":83},{"groupId":"EG002","numAffected":1,"numAtRisk":77}]},{"term":"Hyponatraemia","organSystem":"Metabolism and nutrition disorders","sourceVocabulary":"MedDRA (27.0)","assessmentType":"SYSTEMATIC_ASSESSMENT","stats":[{"groupId":"EG000","numAffected":0,"numAtRisk":76},{"groupId":"EG001","numAffected":0,"numAtRisk":83},{"groupId":"EG002","numAffected":1,"numAtRisk":77}]},{"term":"Insulin resistance","organSystem":"Metabolism and nutrition disorders","sourceVocabulary":"MedDRA (27.0)","assessmentType":"SYSTEMATIC_ASSESSMENT","stats":[{"groupId":"EG000","numAffected":0,"numAtRisk":76},{"groupId":"EG001","numAffected":0,"numAtRisk":83},{"groupId":"EG002","numAffected":1,"numAtRisk":77}]},{"term":"Arthralgia","organSystem":"Musculoskeletal and connective tissue disorders","sourceVocabulary":"MedDRA (27.0)","assessmentType":"SYSTEMATIC_ASSESSMENT","stats":[{"groupId":"EG000","numAffected":0,"numAtRisk":76},{"groupId":"EG001","numAffected":1,"numAtRisk":83},{"groupId":"EG002","numAffected":0,"numAtRisk":77}]},{"term":"Back pain","organSystem":"Musculoskeletal and connective tissue disorders","sourceVocabulary":"MedDRA (27.0)","assessmentType":"SYSTEMATIC_ASSESSMENT","stats":[{"groupId":"EG000","numAffected":0,"numAtRisk":76},{"groupId":"EG001","numAffected":1,"numAtRisk":83},{"groupId":"EG002","numAffected":1,"numAtRisk":77}]},{"term":"Myalgia","organSystem":"Musculoskeletal and connective tissue disorders","sourceVocabulary":"MedDRA (27.0)","assessmentType":"SYSTEMATIC_ASSESSMENT","stats":[{"groupId":"EG000","numAffected":0,"numAtRisk":76},{"groupId":"EG001","numAffected":0,"numAtRisk":83},{"groupId":"EG002","numAffected":1,"numAtRisk":77}]},{"term":"Pain in extremity","organSystem":"Musculoskeletal and connective tissue disorders","sourceVocabulary":"MedDRA (27.0)","assessmentType":"SYSTEMATIC_ASSESSMENT","stats":[{"groupId":"EG000","numAffected":0,"numAtRisk":76},{"groupId":"EG001","numAffected":0,"numAtRisk":83},{"groupId":"EG002","numAffected":1,"numAtRisk":77}]},{"term":"Essential thrombocythaemia","organSystem":"Neoplasms benign, malignant and unspecified (incl cysts and polyps)","sourceVocabulary":"MedDRA (27.0)","assessmentType":"SYSTEMATIC_ASSESSMENT","stats":[{"groupId":"EG000","numAffected":0,"numAtRisk":76},{"groupId":"EG001","numAffected":0,"numAtRisk":83},{"groupId":"EG002","numAffected":1,"numAtRisk":77}]},{"term":"Squamous cell carcinoma of skin","organSystem":"Neoplasms benign, malignant and unspecified (incl cysts and polyps)","sourceVocabulary":"MedDRA (27.0)","assessmentType":"SYSTEMATIC_ASSESSMENT","stats":[{"groupId":"EG000","numAffected":0,"numAtRisk":76},{"groupId":"EG001","numAffected":1,"numAtRisk":83},{"groupId":"EG002","numAffected":0,"numAtRisk":77}]},{"term":"Akathisia","organSystem":"Nervous system disorders","sourceVocabulary":"MedDRA (27.0)","assessmentType":"SYSTEMATIC_ASSESSMENT","stats":[{"groupId":"EG000","numAffected":0,"numAtRisk":76},{"groupId":"EG001","numAffected":0,"numAtRisk":83},{"groupId":"EG002","numAffected":1,"numAtRisk":77}]},{"term":"Akinesia","organSystem":"Nervous system disorders","sourceVocabulary":"MedDRA (27.0)","assessmentType":"SYSTEMATIC_ASSESSMENT","stats":[{"groupId":"EG000","numAffected":0,"numAtRisk":76},{"groupId":"EG001","numAffected":0,"numAtRisk":83},{"groupId":"EG002","numAffected":1,"numAtRisk":77}]},{"term":"Dizziness","organSystem":"Nervous system disorders","sourceVocabulary":"MedDRA (27.0)","assessmentType":"SYSTEMATIC_ASSESSMENT","stats":[{"groupId":"EG000","numAffected":4,"numAtRisk":76},{"groupId":"EG001","numAffected":3,"numAtRisk":83},{"groupId":"EG002","numAffected":5,"numAtRisk":77}]},{"term":"Dyslalia","organSystem":"Nervous system disorders","sourceVocabulary":"MedDRA (27.0)","assessmentType":"SYSTEMATIC_ASSESSMENT","stats":[{"groupId":"EG000","numAffected":0,"numAtRisk":76},{"groupId":"EG001","numAffected":1,"numAtRisk":83},{"groupId":"EG002","numAffected":0,"numAtRisk":77}]},{"term":"Headache","organSystem":"Nervous system disorders","sourceVocabulary":"MedDRA (27.0)","assessmentType":"SYSTEMATIC_ASSESSMENT","stats":[{"groupId":"EG000","numAffected":0,"numAtRisk":76},{"groupId":"EG001","numAffected":2,"numAtRisk":83},{"groupId":"EG002","numAffected":2,"numAtRisk":77}]},{"term":"Hypersomnia","organSystem":"Nervous system disorders","sourceVocabulary":"MedDRA (27.0)","assessmentType":"SYSTEMATIC_ASSESSMENT","stats":[{"groupId":"EG000","numAffected":0,"numAtRisk":76},{"groupId":"EG001","numAffected":0,"numAtRisk":83},{"groupId":"EG002","numAffected":1,"numAtRisk":77}]},{"term":"Lethargy","organSystem":"Nervous system disorders","sourceVocabulary":"MedDRA (27.0)","assessmentType":"SYSTEMATIC_ASSESSMENT","stats":[{"groupId":"EG000","numAffected":1,"numAtRisk":76},{"groupId":"EG001","numAffected":0,"numAtRisk":83},{"groupId":"EG002","numAffected":0,"numAtRisk":77}]},{"term":"Presyncope","organSystem":"Nervous system disorders","sourceVocabulary":"MedDRA (27.0)","assessmentType":"SYSTEMATIC_ASSESSMENT","stats":[{"groupId":"EG000","numAffected":0,"numAtRisk":76},{"groupId":"EG001","numAffected":1,"numAtRisk":83},{"groupId":"EG002","numAffected":0,"numAtRisk":77}]},{"term":"Somnolence","organSystem":"Nervous system disorders","sourceVocabulary":"MedDRA (27.0)","assessmentType":"SYSTEMATIC_ASSESSMENT","stats":[{"groupId":"EG000","numAffected":0,"numAtRisk":76},{"groupId":"EG001","numAffected":0,"numAtRisk":83},{"groupId":"EG002","numAffected":4,"numAtRisk":77}]},{"term":"Tremor","organSystem":"Nervous system disorders","sourceVocabulary":"MedDRA (27.0)","assessmentType":"SYSTEMATIC_ASSESSMENT","stats":[{"groupId":"EG000","numAffected":0,"numAtRisk":76},{"groupId":"EG001","numAffected":0,"numAtRisk":83},{"groupId":"EG002","numAffected":1,"numAtRisk":77}]},{"term":"Aggression","organSystem":"Psychiatric disorders","sourceVocabulary":"MedDRA (27.0)","assessmentType":"SYSTEMATIC_ASSESSMENT","stats":[{"groupId":"EG000","numAffected":0,"numAtRisk":76},{"groupId":"EG001","numAffected":1,"numAtRisk":83},{"groupId":"EG002","numAffected":1,"numAtRisk":77}]},{"term":"Agitation","organSystem":"Psychiatric disorders","sourceVocabulary":"MedDRA (27.0)","assessmentType":"SYSTEMATIC_ASSESSMENT","stats":[{"groupId":"EG000","numAffected":0,"numAtRisk":76},{"groupId":"EG001","numAffected":1,"numAtRisk":83},{"groupId":"EG002","numAffected":1,"numAtRisk":77}]},{"term":"Anxiety","organSystem":"Psychiatric disorders","sourceVocabulary":"MedDRA (27.0)","assessmentType":"SYSTEMATIC_ASSESSMENT","stats":[{"groupId":"EG000","numAffected":0,"numAtRisk":76},{"groupId":"EG001","numAffected":1,"numAtRisk":83},{"groupId":"EG002","numAffected":0,"numAtRisk":77}]},{"term":"Behaviour disorder","organSystem":"Psychiatric disorders","sourceVocabulary":"MedDRA (27.0)","assessmentType":"SYSTEMATIC_ASSESSMENT","stats":[{"groupId":"EG000","numAffected":0,"numAtRisk":76},{"groupId":"EG001","numAffected":0,"numAtRisk":83},{"groupId":"EG002","numAffected":1,"numAtRisk":77}]},{"term":"Confusional state","organSystem":"Psychiatric disorders","sourceVocabulary":"MedDRA (27.0)","assessmentType":"SYSTEMATIC_ASSESSMENT","stats":[{"groupId":"EG000","numAffected":0,"numAtRisk":76},{"groupId":"EG001","numAffected":1,"numAtRisk":83},{"groupId":"EG002","numAffected":0,"numAtRisk":77}]},{"term":"Delirium","organSystem":"Psychiatric disorders","sourceVocabulary":"MedDRA (27.0)","assessmentType":"SYSTEMATIC_ASSESSMENT","stats":[{"groupId":"EG000","numAffected":0,"numAtRisk":76},{"groupId":"EG001","numAffected":1,"numAtRisk":83},{"groupId":"EG002","numAffected":0,"numAtRisk":77}]},{"term":"Enuresis","organSystem":"Psychiatric disorders","sourceVocabulary":"MedDRA (27.0)","assessmentType":"SYSTEMATIC_ASSESSMENT","stats":[{"groupId":"EG000","numAffected":1,"numAtRisk":76},{"groupId":"EG001","numAffected":0,"numAtRisk":83},{"groupId":"EG002","numAffected":0,"numAtRisk":77}]},{"term":"Hypnopompic hallucination","organSystem":"Psychiatric disorders","sourceVocabulary":"MedDRA (27.0)","assessmentType":"SYSTEMATIC_ASSESSMENT","stats":[{"groupId":"EG000","numAffected":0,"numAtRisk":76},{"groupId":"EG001","numAffected":0,"numAtRisk":83},{"groupId":"EG002","numAffected":1,"numAtRisk":77}]},{"term":"Insomnia","organSystem":"Psychiatric disorders","sourceVocabulary":"MedDRA (27.0)","assessmentType":"SYSTEMATIC_ASSESSMENT","stats":[{"groupId":"EG000","numAffected":0,"numAtRisk":76},{"groupId":"EG001","numAffected":2,"numAtRisk":83},{"groupId":"EG002","numAffected":2,"numAtRisk":77}]},{"term":"Sleep talking","organSystem":"Psychiatric disorders","sourceVocabulary":"MedDRA (27.0)","assessmentType":"SYSTEMATIC_ASSESSMENT","stats":[{"groupId":"EG000","numAffected":0,"numAtRisk":76},{"groupId":"EG001","numAffected":0,"numAtRisk":83},{"groupId":"EG002","numAffected":1,"numAtRisk":77}]},{"term":"Glycosuria","organSystem":"Renal and urinary disorders","sourceVocabulary":"MedDRA (27.0)","assessmentType":"SYSTEMATIC_ASSESSMENT","stats":[{"groupId":"EG000","numAffected":1,"numAtRisk":76},{"groupId":"EG001","numAffected":0,"numAtRisk":83},{"groupId":"EG002","numAffected":0,"numAtRisk":77}]},{"term":"Hypercalciuria","organSystem":"Renal and urinary disorders","sourceVocabulary":"MedDRA (27.0)","assessmentType":"SYSTEMATIC_ASSESSMENT","stats":[{"groupId":"EG000","numAffected":0,"numAtRisk":76},{"groupId":"EG001","numAffected":0,"numAtRisk":83},{"groupId":"EG002","numAffected":1,"numAtRisk":77}]},{"term":"Polyuria","organSystem":"Renal and urinary disorders","sourceVocabulary":"MedDRA (27.0)","assessmentType":"SYSTEMATIC_ASSESSMENT","stats":[{"groupId":"EG000","numAffected":0,"numAtRisk":76},{"groupId":"EG001","numAffected":0,"numAtRisk":83},{"groupId":"EG002","numAffected":1,"numAtRisk":77}]},{"term":"Urinary incontinence","organSystem":"Renal and urinary disorders","sourceVocabulary":"MedDRA (27.0)","assessmentType":"SYSTEMATIC_ASSESSMENT","stats":[{"groupId":"EG000","numAffected":0,"numAtRisk":76},{"groupId":"EG001","numAffected":0,"numAtRisk":83},{"groupId":"EG002","numAffected":1,"numAtRisk":77}]},{"term":"Benign prostatic hyperplasia","organSystem":"Reproductive system and breast disorders","sourceVocabulary":"MedDRA (27.0)","assessmentType":"SYSTEMATIC_ASSESSMENT","stats":[{"groupId":"EG000","numAffected":0,"numAtRisk":76},{"groupId":"EG001","numAffected":1,"numAtRisk":83},{"groupId":"EG002","numAffected":1,"numAtRisk":77}]},{"term":"Prostatism","organSystem":"Reproductive system and breast disorders","sourceVocabulary":"MedDRA (27.0)","assessmentType":"SYSTEMATIC_ASSESSMENT","stats":[{"groupId":"EG000","numAffected":0,"numAtRisk":76},{"groupId":"EG001","numAffected":0,"numAtRisk":83},{"groupId":"EG002","numAffected":1,"numAtRisk":77}]},{"term":"Chronic obstructive pulmonary disease","organSystem":"Respiratory, thoracic and mediastinal disorders","sourceVocabulary":"MedDRA (27.0)","assessmentType":"SYSTEMATIC_ASSESSMENT","stats":[{"groupId":"EG000","numAffected":0,"numAtRisk":76},{"groupId":"EG001","numAffected":0,"numAtRisk":83},{"groupId":"EG002","numAffected":1,"numAtRisk":77}]},{"term":"Cough","organSystem":"Respiratory, thoracic and mediastinal disorders","sourceVocabulary":"MedDRA (27.0)","assessmentType":"SYSTEMATIC_ASSESSMENT","stats":[{"groupId":"EG000","numAffected":0,"numAtRisk":76},{"groupId":"EG001","numAffected":0,"numAtRisk":83},{"groupId":"EG002","numAffected":1,"numAtRisk":77}]},{"term":"Dyspnoea","organSystem":"Respiratory, thoracic and mediastinal disorders","sourceVocabulary":"MedDRA (27.0)","assessmentType":"SYSTEMATIC_ASSESSMENT","stats":[{"groupId":"EG000","numAffected":0,"numAtRisk":76},{"groupId":"EG001","numAffected":0,"numAtRisk":83},{"groupId":"EG002","numAffected":1,"numAtRisk":77}]},{"term":"Productive cough","organSystem":"Respiratory, thoracic and mediastinal disorders","sourceVocabulary":"MedDRA (27.0)","assessmentType":"SYSTEMATIC_ASSESSMENT","stats":[{"groupId":"EG000","numAffected":0,"numAtRisk":76},{"groupId":"EG001","numAffected":1,"numAtRisk":83},{"groupId":"EG002","numAffected":0,"numAtRisk":77}]},{"term":"Rhinitis allergic","organSystem":"Respiratory, thoracic and mediastinal disorders","sourceVocabulary":"MedDRA (27.0)","assessmentType":"SYSTEMATIC_ASSESSMENT","stats":[{"groupId":"EG000","numAffected":0,"numAtRisk":76},{"groupId":"EG001","numAffected":0,"numAtRisk":83},{"groupId":"EG002","numAffected":1,"numAtRisk":77}]},{"term":"Acne","organSystem":"Skin and subcutaneous tissue disorders","sourceVocabulary":"MedDRA (27.0)","assessmentType":"SYSTEMATIC_ASSESSMENT","stats":[{"groupId":"EG000","numAffected":0,"numAtRisk":76},{"groupId":"EG001","numAffected":1,"numAtRisk":83},{"groupId":"EG002","numAffected":0,"numAtRisk":77}]},{"term":"Skin lesion","organSystem":"Skin and subcutaneous tissue disorders","sourceVocabulary":"MedDRA (27.0)","assessmentType":"SYSTEMATIC_ASSESSMENT","stats":[{"groupId":"EG000","numAffected":0,"numAtRisk":76},{"groupId":"EG001","numAffected":1,"numAtRisk":83},{"groupId":"EG002","numAffected":0,"numAtRisk":77}]},{"term":"Edentulous","organSystem":"Social circumstances","sourceVocabulary":"MedDRA (27.0)","assessmentType":"SYSTEMATIC_ASSESSMENT","stats":[{"groupId":"EG000","numAffected":0,"numAtRisk":76},{"groupId":"EG001","numAffected":1,"numAtRisk":83},{"groupId":"EG002","numAffected":0,"numAtRisk":77}]},{"term":"Hypertension","organSystem":"Vascular disorders","sourceVocabulary":"MedDRA (27.0)","assessmentType":"SYSTEMATIC_ASSESSMENT","stats":[{"groupId":"EG000","numAffected":0,"numAtRisk":76},{"groupId":"EG001","numAffected":3,"numAtRisk":83},{"groupId":"EG002","numAffected":0,"numAtRisk":77}]},{"term":"Hypotension","organSystem":"Vascular disorders","sourceVocabulary":"MedDRA (27.0)","assessmentType":"SYSTEMATIC_ASSESSMENT","stats":[{"groupId":"EG000","numAffected":0,"numAtRisk":76},{"groupId":"EG001","numAffected":0,"numAtRisk":83},{"groupId":"EG002","numAffected":1,"numAtRisk":77}]},{"term":"Orthostatic hypotension","organSystem":"Vascular disorders","sourceVocabulary":"MedDRA (27.0)","assessmentType":"SYSTEMATIC_ASSESSMENT","stats":[{"groupId":"EG000","numAffected":0,"numAtRisk":76},{"groupId":"EG001","numAffected":1,"numAtRisk":83},{"groupId":"EG002","numAffected":1,"numAtRisk":77}]}]},"moreInfoModule":{"limitationsAndCaveats":{"description":"The study was prematurely terminated due to discontinuation of development of the AVP-786 compound."},"certainAgreement":{"piSponsorEmployee":false,"restrictiveAgreement":false},"pointOfContact":{"title":"Clinical Transparency","organization":"Otsuka Pharmaceutical Development & Commercialization, Inc.","email":"smb_clinicaltranspa@otsuka-us.com","phone":"08446878522"}}},"documentSection":{"largeDocumentModule":{"largeDocs":[{"typeAbbrev":"Prot","hasProtocol":true,"hasSap":false,"hasIcf":false,"label":"Study Protocol","date":"2023-05-15","uploadDate":"2025-04-03T05:03","filename":"Prot_000.pdf","size":19950934},{"typeAbbrev":"SAP","hasProtocol":false,"hasSap":true,"hasIcf":false,"label":"Statistical Analysis Plan","date":"2024-09-03","uploadDate":"2025-04-03T05:03","filename":"SAP_001.pdf","size":9707204}]}},"derivedSection":{"miscInfoModule":{"versionHolder":"2025-07-25","submissionTracking":{"firstMcpInfo":{"postDateStruct":{"date":"2025-04-22","type":"ACTUAL"}}}},"conditionBrowseModule":{"meshes":[{"id":"D003704","term":"Dementia"},{"id":"D000544","term":"Alzheimer Disease"},{"id":"D011595","term":"Psychomotor Agitation"}],"ancestors":[{"id":"D001927","term":"Brain Diseases"},{"id":"D002493","term":"Central Nervous System Diseases"},{"id":"D009422","term":"Nervous System Diseases"},{"id":"D019965","term":"Neurocognitive Disorders"},{"id":"D001523","term":"Mental Disorders"},{"id":"D024801","term":"Tauopathies"},{"id":"D019636","term":"Neurodegenerative Diseases"},{"id":"D020820","term":"Dyskinesias"},{"id":"D009461","term":"Neurologic Manifestations"},{"id":"D011596","term":"Psychomotor Disorders"},{"id":"D019954","term":"Neurobehavioral Manifestations"},{"id":"D000096762","term":"Aberrant Motor Behavior in Dementia"},{"id":"D001526","term":"Behavioral Symptoms"}],"browseLeaves":[{"id":"M6904","name":"Dementia","asFound":"Dementia","relevance":"HIGH"},{"id":"M14452","name":"Psychomotor Agitation","asFound":"Agitation","relevance":"HIGH"},{"id":"M3885","name":"Alzheimer Disease","asFound":"Dementia of the Alzheimer's Type","relevance":"HIGH"},{"id":"M5204","name":"Brain Diseases","relevance":"LOW"},{"id":"M5742","name":"Central Nervous System Diseases","relevance":"LOW"},{"id":"M21836","name":"Neurocognitive Disorders","relevance":"LOW"},{"id":"M14473","name":"Psychotic Disorders","relevance":"LOW"},{"id":"M4815","name":"Mental Disorders","relevance":"LOW"},{"id":"M23002","name":"Tauopathies","relevance":"LOW"},{"id":"M21558","name":"Neurodegenerative Diseases","relevance":"LOW"},{"id":"M22574","name":"Dyskinesias","relevance":"LOW"},{"id":"M12404","name":"Neurologic Manifestations","relevance":"LOW"},{"id":"M14453","name":"Psychomotor Disorders","relevance":"LOW"},{"id":"M21826","name":"Neurobehavioral Manifestations","relevance":"LOW"},{"id":"M3259","name":"Aberrant Motor Behavior in Dementia","relevance":"LOW"},{"id":"M4818","name":"Behavioral Symptoms","relevance":"LOW"},{"id":"T2192","name":"Familial Alzheimer Disease","asFound":"Dementia of the Alzheimer's Type","relevance":"HIGH"}],"browseBranches":[{"abbrev":"BC10","name":"Nervous System Diseases"},{"abbrev":"BXM","name":"Behaviors and Mental Disorders"},{"abbrev":"All","name":"All Conditions"},{"abbrev":"BC23","name":"Symptoms and General Pathology"},{"abbrev":"Rare","name":"Rare Diseases"}]},"interventionBrowseModule":{"browseLeaves":[{"id":"M14652","name":"Quinidine","relevance":"LOW"},{"id":"M236803","name":"Quinidine gluconate","relevance":"LOW"}],"browseBranches":[{"abbrev":"Infe","name":"Anti-Infective Agents"},{"abbrev":"AnArAg","name":"Anti-Arrhythmia Agents"},{"abbrev":"ChanBlk","name":"Channel Blockers"},{"abbrev":"All","name":"All Drugs and Chemicals"}]}},"hasResults":true}